,City,Latitude,Longitude,Max_temp,Humidity,Clouds,Wind_speed,Country,Date
0,kapaa,22.0752,-159.319,73.0,88,40,9.22,US,1612392712
1,yellowknife,62.456,-114.3525,-15.0,69,90,6.91,CA,1612392485
2,clinton,42.587,-82.9199,37.4,51,20,5.75,US,1612392517
3,hobart,-42.8794,147.3294,61.0,94,75,10.36,AU,1612392712
4,vaini,-21.2,-175.2,82.4,89,75,10.36,TO,1612392712
5,khatanga,71.9667,102.5,-6.16,90,99,12.53,RU,1612392712
6,nikolskoye,59.7035,30.7861,19.0,86,75,17.9,RU,1612392712
7,sakakah,29.9697,40.2064,60.8,39,20,5.75,SA,1612392518
8,mucuri,-18.0864,-39.5508,77.85,83,64,10.94,BR,1612392518
9,puerto ayora,-0.7393,-90.3518,84.2,65,0,10.36,EC,1612392713
10,tuktoyaktuk,69.4541,-133.0374,-40.0,67,20,5.75,CA,1612392518
11,torbay,47.6666,-52.7314,46.4,100,90,20.71,CA,1612392518
12,dunedin,-45.8742,170.5036,55.99,65,61,10.0,NZ,1612392713
13,teahupoo,-17.8333,-149.2667,80.6,74,40,6.91,PF,1612392519
14,ushuaia,-54.8,-68.3,53.6,58,75,5.75,AR,1612392684
15,ilulissat,69.2167,-51.1,-5.8,45,20,12.66,GL,1612392519
16,castro,-24.7911,-50.0119,70.59,86,60,4.56,BR,1612392519
17,san quintin,30.4833,-115.95,63.54,71,67,16.26,MX,1612392519
18,omsukchan,62.5333,155.8,-11.25,87,100,14.07,RU,1612392519
19,georgetown,5.4112,100.3354,78.8,73,20,2.3,MY,1612392504
20,saskylakh,71.9167,114.0833,-35.34,79,46,7.16,RU,1612392714
21,kruisfontein,-34.0033,24.7314,70.0,82,0,1.01,ZA,1612392714
22,veraval,20.9,70.3667,68.05,52,0,10.29,IN,1612392714
23,chokurdakh,70.6333,147.9167,-4.34,92,98,8.88,RU,1612392520
24,lorengau,-2.0226,147.2712,83.39,70,65,1.1,PG,1612392520
25,butaritari,3.0707,172.7902,81.61,83,71,17.31,KI,1612392715
26,miraflores,19.2167,-98.8083,77.0,8,1,8.05,MX,1612392520
27,bansko,41.8383,23.4885,43.0,82,21,1.01,BG,1612392521
28,dikson,73.5069,80.5464,-5.1,91,100,13.33,RU,1612392521
29,mataura,-46.1927,168.8643,59.05,47,32,7.31,NZ,1612392715
30,atuona,-9.8,-139.0333,78.03,71,1,9.89,PF,1612392715
31,vestmannaeyjar,63.4427,-20.2734,38.07,77,90,34.2,IS,1612392521
32,virginia beach,36.8529,-75.978,43.0,45,75,4.61,US,1612392521
33,mutare,-18.9707,32.6709,67.5,98,85,2.75,ZW,1612392521
34,hithadhoo,-0.6,73.0833,82.62,74,96,9.4,MV,1612392716
35,camacha,33.0833,-16.3333,55.4,82,20,6.91,PT,1612392522
36,luanda,-8.8368,13.2343,80.6,78,40,10.36,AO,1612391864
37,jiuquan,39.7432,98.5174,20.32,68,7,1.21,CN,1612392522
38,carahue,-38.7,-73.1667,80.6,57,0,9.22,CL,1612392522
39,busselton,-33.65,115.3333,51.01,77,0,17.43,AU,1612392717
40,lukovetskiy,64.2956,41.9211,1.4,78,40,6.71,RU,1612392522
41,marathon,44.9,-89.7668,33.8,44,1,10.36,US,1612392282
42,mae hong son,19.3003,97.9685,57.97,41,0,1.61,TH,1612392523
43,rikitea,-23.1203,-134.9692,78.33,70,0,12.91,PF,1612392717
44,alofi,-19.0595,-169.9187,80.04,83,100,18.88,NU,1612392523
45,bluff,-46.6,168.3333,55.26,63,51,16.62,NZ,1612392717
46,durazno,-33.4131,-56.5006,66.63,94,100,12.24,UY,1612392523
47,geraldton,-28.7667,114.6,69.8,68,8,21.85,AU,1612392718
48,roma,43.2128,-75.4557,27.0,68,90,8.05,US,1612392459
49,avera,33.194,-82.5271,51.8,28,1,6.91,US,1612392718
50,masumbwe,-3.6333,32.1833,63.68,94,75,2.42,TZ,1612392524
51,clarence town,-32.5833,151.7833,80.01,65,0,9.22,AU,1612392718
52,kodiak,57.79,-152.4072,33.8,80,1,0.38,US,1612392443
53,gloversville,43.0528,-74.3438,27.0,93,90,11.5,US,1612392524
54,charters towers,-20.1,146.2667,79.88,69,54,9.55,AU,1612392524
55,tehri,30.3833,78.4833,49.53,49,53,5.19,IN,1612392524
56,fonte boa,-2.4959,-66.2662,76.01,94,100,2.28,BR,1612392525
57,beatrice,40.2681,-96.747,53.6,50,1,8.05,US,1612392525
58,mount isa,-20.7333,139.5,86.0,58,40,12.66,AU,1612392525
59,asau,46.4333,26.4,39.0,100,90,11.5,RO,1612392525
60,praia da vitoria,38.7333,-27.0667,53.6,66,40,26.98,PT,1612392525
61,baykit,61.67,96.37,-10.93,85,98,1.32,RU,1612392448
62,tchaourou,8.8865,2.5975,77.9,18,0,5.14,BJ,1612392526
63,svetlogorsk,52.6333,29.7333,33.6,98,99,6.76,BY,1612392526
64,harer,9.3094,42.1258,51.78,35,0,5.12,ET,1612392526
65,fuerte olimpo,-21.0415,-57.8738,83.34,69,95,2.13,PY,1612392526
66,mount gambier,-37.8333,140.7667,62.6,72,92,5.75,AU,1612392526
67,kaitangata,-46.2817,169.8464,55.99,59,66,5.99,NZ,1612392720
68,punta arenas,-53.15,-70.9167,62.6,63,40,18.41,CL,1612392721
69,nortelandia,-14.4547,-56.8028,75.7,89,93,5.48,BR,1612392527
70,jamestown,42.097,-79.2353,27.0,74,1,12.66,US,1612392721
71,cape town,-33.9258,18.4232,68.0,77,20,14.97,ZA,1612392553
72,olafsvik,64.8945,-23.7142,36.66,79,100,24.81,IS,1612392527
73,ancud,-41.8697,-73.8203,71.6,56,0,5.75,CL,1612392527
74,luxor,25.6989,32.6421,66.2,48,20,5.75,EG,1612392527
75,meulaboh,4.1363,96.1285,76.23,88,98,4.9,ID,1612392414
76,port lincoln,-34.7333,135.8667,62.26,80,100,14.03,AU,1612392722
77,klaksvik,62.2266,-6.589,32.0,80,37,1.14,FO,1612392528
78,husavik,66.0449,-17.3389,15.8,79,0,10.36,IS,1612392528
79,lady frere,-31.7031,27.2329,64.96,77,8,7.16,ZA,1612392528
80,acurenam,1.0322,10.6488,69.71,99,100,2.64,GQ,1612392528
81,ribeira grande,38.5167,-28.7,55.89,64,68,28.41,PT,1612392528
82,havelock,34.8791,-76.9013,48.2,25,20,14.97,US,1612392408
83,rocha,-34.4833,-54.3333,66.65,95,100,10.49,UY,1612392528
84,aracati,-4.5617,-37.7697,81.48,70,22,16.22,BR,1612392529
85,cap malheureux,-19.9842,57.6142,75.2,88,75,5.75,MU,1612392723
86,bethel,41.3712,-73.414,33.8,60,90,10.36,US,1612392402
87,garowe,8.4054,48.4845,60.13,62,0,7.23,SO,1612392529
88,broome,42.2506,-75.833,27.0,80,90,11.5,US,1612392396
89,port alfred,-33.5906,26.891,69.01,92,0,1.99,ZA,1612392495
90,arraial do cabo,-22.9661,-42.0278,77.47,83,0,24.14,BR,1612392404
91,haines junction,60.7522,-137.5108,-5.8,49,100,2.3,CA,1612392125
92,nome,64.5011,-165.4064,-2.2,55,20,13.8,US,1612392421
93,cidreira,-30.1811,-50.2056,76.86,94,100,9.53,BR,1612392530
94,pisco,-13.7,-76.2167,75.2,69,0,10.36,PE,1612392412
95,port elizabeth,-33.918,25.5701,68.0,94,40,10.36,ZA,1612392724
96,lompoc,34.6391,-120.4579,62.6,55,1,14.97,US,1612392432
97,prainha,-1.8,-53.48,82.74,62,23,3.96,BR,1612392530
98,tasiilaq,65.6145,-37.6368,26.58,97,100,25.46,GL,1612392725
99,crixas,-14.5489,-49.9692,76.48,84,87,2.13,BR,1612392531
100,bairiki,1.3292,172.9752,84.2,74,20,10.36,KI,1612392531
101,mahebourg,-20.4081,57.7,75.2,88,75,5.75,MU,1612392725
102,buala,-8.145,159.5921,80.55,79,100,11.63,SB,1612392531
103,phalaborwa,-23.943,31.1411,75.2,94,72,2.3,ZA,1612392531
104,novoseleznevo,55.6821,69.2056,4.24,94,18,5.82,RU,1612392531
105,barrow,71.2906,-156.7887,-23.8,76,1,14.97,US,1612392726
106,yingcheng,30.95,113.55,46.4,76,8,4.47,CN,1612392532
107,conde,-7.2597,-34.9075,80.6,78,20,10.36,BR,1612392344
108,santa isabel do rio negro,-0.4139,-65.0192,78.64,85,96,1.88,BR,1612392532
109,wald-michelbach,49.57,8.8317,52.0,93,100,5.01,DE,1612392532
110,chipata,-13.6333,32.65,65.32,94,98,3.31,ZM,1612392532
111,san andres,12.5847,-81.7006,80.6,61,40,14.97,CO,1612392532
112,khandyga,62.6667,135.6,-54.51,65,41,0.58,RU,1612392533
113,hermanus,-34.4187,19.2345,66.0,77,19,1.01,ZA,1612392727
114,uribia,11.7139,-72.266,84.52,57,2,10.4,CO,1612392533
115,saldanha,-33.0117,17.9442,64.4,82,0,5.75,ZA,1612392633
116,mar del plata,-38.0023,-57.5575,68.0,77,20,13.8,AR,1612392727
117,upernavik,72.7868,-56.1549,-14.87,70,8,5.21,GL,1612392398
118,abeche,13.8292,20.8324,73.08,19,29,12.66,TD,1612392534
119,noumea,-22.2763,166.4572,81.0,99,53,9.98,NC,1612392534
120,new norfolk,-42.7826,147.0587,61.0,91,88,1.01,AU,1612392728
121,arvika,59.6553,12.5852,10.4,85,2,13.8,SE,1612392534
122,thompson,55.7435,-97.8558,1.4,78,90,14.97,CA,1612392728
123,morros,-9.4467,-46.3003,78.73,69,56,3.96,BR,1612392534
124,bombay,19.0144,72.8479,75.2,57,1,6.64,IN,1612392516
125,tateyama,34.9833,139.8667,46.4,57,20,21.85,JP,1612392457
126,faanui,-16.4833,-151.75,82.09,69,6,8.75,PF,1612392728
127,acapulco,16.8634,-99.8901,84.2,65,40,8.05,MX,1612392535
128,poum,-20.2333,164.0167,79.63,81,62,17.38,NC,1612392729
129,nanortalik,60.1432,-45.2371,15.3,80,0,15.12,GL,1612392535
130,sungairaya,0.7,108.9,75.31,89,72,6.33,ID,1612392535
131,minsk,53.9,27.5667,30.2,100,90,2.24,BY,1612392426
132,huarmey,-10.0681,-78.1522,73.92,67,80,9.24,PE,1612392536
133,pevek,69.7008,170.3133,-7.22,72,19,8.68,RU,1612392729
134,atambua,-9.1061,124.8925,73.58,95,100,7.7,ID,1612392550
135,constitucion,-35.3333,-72.4167,68.07,61,0,11.92,CL,1612392730
136,visby,57.6409,18.296,26.6,93,90,3.44,SE,1612392536
137,indramayu,-6.3264,108.32,77.4,89,100,15.1,ID,1612392536
138,bredasdorp,-34.5322,20.0403,59.0,88,2,6.91,ZA,1612392730
139,avarua,-21.2078,-159.775,86.0,74,25,9.22,CK,1612392730
140,albany,42.6001,-73.9662,28.99,67,100,13.0,US,1612392496
141,camocim,-2.9022,-40.8411,80.56,71,99,17.29,BR,1612392447
142,san cristobal,7.7669,-72.225,87.8,51,40,12.66,VE,1612392142
143,cururupu,-1.8283,-44.8683,76.51,89,62,3.74,BR,1612392537
144,palana,59.1167,159.9667,20.52,93,11,22.66,RU,1612392135
145,kununurra,-15.7667,128.7333,82.4,100,90,3.44,AU,1612392537
146,la rioja,42.25,-2.5,48.2,100,90,1.14,ES,1612392537
147,provideniya,64.3833,-173.3,-6.11,84,100,14.79,RU,1612392439
148,saint-philippe,-21.3585,55.7679,77.0,73,0,2.3,RE,1612392731
149,anloga,5.7947,0.8973,84.2,84,20,10.36,GH,1612392731
150,ryotsu,38.0833,138.4333,35.6,93,75,13.8,JP,1612392538
151,mandalgovi,45.7625,106.2708,10.67,79,0,15.55,MN,1612392132
152,athens,37.9795,23.7162,55.99,85,0,2.33,GR,1612392327
153,tame,6.461,-71.73,84.07,44,16,4.74,CO,1612392538
154,ixtapa,20.7,-105.2,75.2,78,1,9.22,MX,1612392732
155,parkes,-33.1333,148.1833,79.0,53,35,5.99,AU,1612392538
156,port hardy,50.6996,-127.4199,41.0,87,90,3.44,CA,1612392539
157,nizhyn,51.048,31.8869,33.21,97,100,9.66,UA,1612392539
158,chunoyar,57.4467,97.3217,11.97,92,100,11.3,RU,1612392539
159,shilovo,54.3204,40.874,29.28,98,100,9.73,RU,1612392539
160,carnarvon,-24.8667,113.6333,77.0,91,90,24.16,AU,1612392539
161,vila real,41.3006,-7.7441,50.0,9,68,3.58,PT,1612392408
162,tual,-5.6667,132.75,83.82,76,100,18.66,ID,1612392539
163,tabou,4.423,-7.3528,78.44,88,14,6.87,CI,1612392540
164,shenjiamen,29.9576,122.298,47.62,83,11,12.88,CN,1612392540
165,loandjili,-4.7561,11.8578,82.4,89,40,5.75,CG,1612392540
166,sao filipe,14.8961,-24.4956,71.87,78,77,9.91,CV,1612392392
167,yakeshi,49.2833,120.7333,-26.03,85,91,1.95,CN,1612392540
168,vila franca do campo,37.7167,-25.4333,51.8,66,40,4.61,PT,1612392457
169,gamba,-2.65,10.0,79.07,88,100,4.65,GA,1612392540
170,hobyo,5.3505,48.5268,75.99,82,9,14.83,SO,1612392541
171,urumqi,43.801,87.6005,10.4,92,47,2.24,CN,1612392253
172,tottori,35.5,134.2333,37.4,60,75,8.05,JP,1612392541
173,turukhansk,65.8167,87.9833,-5.8,92,100,3.94,RU,1612392541
174,imbituba,-28.24,-48.6703,82.4,78,75,4.61,BR,1612392541
175,severo-kurilsk,50.6789,156.125,10.87,92,99,32.88,RU,1612392541
176,olhao,37.0286,-7.8411,57.2,100,75,2.3,PT,1612392542
177,muros,42.7762,-9.0603,53.01,81,15,13.0,ES,1612392542
178,vardo,70.3705,31.1107,30.2,69,75,20.71,NO,1612392542
179,coquimbo,-29.9533,-71.3436,60.8,82,40,9.22,CL,1612392533
180,tevriz,57.509,72.4042,6.64,95,100,6.49,RU,1612392542
181,ahipara,-35.1667,173.1667,73.51,50,91,0.69,NZ,1612392445
182,zhigansk,66.7697,123.3711,-39.03,80,97,10.31,RU,1612392543
183,chapais,49.7834,-74.8492,26.6,46,75,12.66,CA,1612392460
184,erenhot,43.6475,111.9767,14.0,85,0,15.41,CN,1612392543
185,gotsu,35.0,132.2167,46.35,72,97,26.28,JP,1612392543
186,weinan,34.5036,109.5089,37.99,63,0,2.24,CN,1612392543
187,makakilo city,21.3469,-158.0858,73.4,73,20,11.5,US,1612392544
188,vieques,18.425,-65.8329,82.4,57,20,8.05,PR,1612392544
189,gat,31.61,34.7642,63.0,52,0,5.53,IL,1612392483
190,deyang,31.1302,104.382,46.0,78,75,1.39,CN,1612392544
191,lubango,-14.9172,13.4925,63.18,70,100,3.4,AO,1612392545
192,belmonte,-15.8631,-38.8828,78.8,78,0,6.91,BR,1612392737
193,taoudenni,22.6783,-3.9836,71.22,21,21,9.82,ML,1612392545
194,ossora,59.2353,163.0719,26.76,91,60,24.25,RU,1612392737
195,arlit,18.7369,7.3853,64.78,26,0,7.29,NE,1612392737
196,victor harbor,-35.5667,138.6167,71.01,63,100,11.01,AU,1612392545
197,lima,-12.0432,-77.0282,73.0,73,20,9.22,PE,1612392464
198,segou,13.4317,-6.2157,74.73,15,60,7.61,ML,1612392545
199,ulagan,50.6321,87.9563,21.63,90,100,4.76,RU,1612392546
200,kieta,-6.2167,155.6333,83.03,79,86,9.95,PG,1612392412
201,mabaruma,8.2,-59.7833,77.0,94,40,6.91,GY,1612392546
202,deputatskiy,69.3,139.9,-24.29,89,99,2.64,RU,1612392546
203,naze,28.3667,129.4833,44.6,93,20,4.61,JP,1612392546
204,vao,-22.6667,167.4833,78.69,86,93,23.42,NC,1612392440
205,killam,52.7834,-111.8518,-2.2,71,97,10.36,CA,1612392305
206,ballina,-28.8667,153.5667,75.2,78,25,6.91,AU,1612392685
207,ghanzi,-21.5667,21.7833,67.57,89,98,6.26,BW,1612392547
208,aden,12.7794,45.0367,74.12,76,0,11.72,YE,1612392547
209,bowen,-20.0167,148.2333,78.8,83,75,4.61,AU,1612392547
210,tuatapere,-46.1333,167.6833,59.99,51,24,7.67,NZ,1612392440
211,beringovskiy,63.05,179.3167,4.55,93,100,15.84,RU,1612392547
212,lavrentiya,65.5833,-171.0,-12.8,84,0,15.03,RU,1612392457
213,manzhouli,49.6,117.4333,-8.75,90,99,3.09,CN,1612392500
214,bathsheba,13.2167,-59.5167,78.8,69,20,25.32,BB,1612392548
215,narsaq,60.9167,-46.05,15.8,48,90,11.5,GL,1612392548
216,iqaluit,63.7506,-68.5145,-5.8,77,90,2.3,CA,1612392548
217,koslan,63.4564,48.8989,2.68,93,100,3.4,RU,1612392548
218,bakchar,57.0186,82.0711,4.89,95,95,6.15,RU,1612392548
219,bengkulu,-3.8004,102.2655,75.97,85,100,5.32,ID,1612392740
220,guerrero negro,27.9769,-114.0611,67.19,63,82,17.02,MX,1612392741
221,qaanaaq,77.484,-69.3632,-21.8,66,60,4.38,GL,1612392741
222,maraba,-5.3686,-49.1178,86.0,74,0,2.3,BR,1612392549
223,price,39.5994,-110.8107,39.2,60,40,16.11,US,1612392549
224,channel-port aux basques,47.5702,-59.1367,40.1,95,100,11.43,CA,1612392550
225,kita,13.0349,-9.4895,74.77,16,34,3.53,ML,1612392550
226,lukulu,-14.3707,23.242,66.34,89,99,4.34,ZM,1612392550
227,adamas,36.7333,24.4333,51.8,100,0,4.61,GR,1612392550
228,katherine,-14.4667,132.2667,82.4,83,69,9.22,AU,1612392550
229,cabo san lucas,22.8909,-109.9124,84.2,30,20,8.05,MX,1612392454
230,kiruna,67.8557,20.2251,15.8,86,20,11.5,SE,1612392419
231,ouallam,14.3188,2.0866,74.03,16,0,9.4,NE,1612392551
232,vetralla,42.3098,12.0784,50.0,95,65,3.0,IT,1612392551
233,port blair,11.6667,92.75,76.48,75,100,8.99,IN,1612392314
234,hilo,19.7297,-155.09,84.2,39,1,11.5,US,1612392742
235,miandrivazo,-19.5167,45.4667,81.86,77,59,1.7,MG,1612392552
236,chuy,-33.6971,-53.4616,68.99,94,100,22.68,UY,1612392743
237,talcahuano,-36.7167,-73.1167,64.4,77,0,9.22,CL,1612392552
238,bambous virieux,-20.3428,57.7575,75.2,88,75,5.75,MU,1612392743
239,salalah,17.0151,54.0924,66.2,59,0,3.44,OM,1612392743
240,vallenar,-28.5708,-70.7581,80.29,31,0,5.21,CL,1612392552
241,porto santo,33.072,-16.3415,55.4,82,20,6.91,PT,1612392552
242,samarai,-10.6167,150.6667,82.6,75,96,10.16,PG,1612392553
243,niquero,20.0431,-77.5828,74.01,52,0,12.95,CU,1612392553
244,airai,-8.9266,125.4092,61.63,100,100,4.59,TL,1612392744
245,whitehorse,60.7161,-135.0538,0.0,65,20,11.5,CA,1612392553
246,peski,55.2163,38.7626,28.4,93,90,6.71,RU,1612392553
247,hofn,64.2539,-15.2082,30.52,92,97,14.18,IS,1612392553
248,ferrol,43.4832,-8.2369,53.01,73,9,7.0,ES,1612392458
249,rawson,-43.3002,-65.1023,80.51,30,76,8.23,AR,1612392264
250,dingle,10.9995,122.6711,74.75,91,95,9.73,PH,1612392744
251,norman wells,65.282,-126.8329,-32.8,68,75,10.36,CA,1612392744
252,katsuura,35.1333,140.3,46.4,57,20,21.85,JP,1612392430
253,nemuro,43.3236,145.575,13.17,88,30,17.09,JP,1612392554
254,morrinhos,-17.7311,-49.0994,73.96,78,100,3.13,BR,1612392554
255,kyzyl-suu,42.3414,78.0056,24.84,70,0,7.34,KG,1612392554
256,christchurch,-43.5333,172.6333,61.0,67,90,13.8,NZ,1612392492
257,todos santos,23.45,-110.2167,75.0,70,37,7.0,MX,1612392368
258,dulce grande,23.0,-102.1667,77.0,13,40,11.5,MX,1612392555
259,bontang,0.1333,117.5,75.76,86,99,4.65,ID,1612392555
260,roswell,34.0232,-84.3616,46.99,34,1,9.22,US,1612392439
261,ahuimanu,21.4447,-157.8378,69.8,78,90,3.44,US,1612392555
262,lebu,-37.6167,-73.65,60.78,82,0,11.9,CL,1612392746
263,gizo,-8.103,156.8419,82.51,79,85,17.69,SB,1612392556
264,kirensk,57.7853,108.1119,4.66,93,100,6.08,RU,1612392556
265,brigantine,39.4101,-74.3646,35.01,69,90,12.66,US,1612392746
266,babaeski,41.4325,27.0931,48.96,92,34,4.59,TR,1612392556
267,ayan,56.45,138.1667,-26.73,70,12,16.44,RU,1612392556
268,superior,46.7208,-92.1041,30.99,80,1,4.61,US,1612392557
269,campoverde,-8.4753,-74.8058,87.8,62,40,4.61,PE,1612392557
270,cascavel,-24.9558,-53.4553,80.6,78,75,2.42,BR,1612392557
271,massaguet,12.4755,15.4365,71.6,24,24,3.44,TD,1612392557
272,north bend,43.4065,-124.2243,48.2,81,90,5.23,US,1612392557
273,moose factory,51.2585,-80.6094,14.0,92,90,3.44,CA,1612392557
274,seoul,37.5683,126.9778,21.2,62,0,5.75,KR,1612392445
275,victoria,22.2855,114.1577,64.0,68,0,11.61,HK,1612392712
276,tura,25.5198,90.2201,57.85,59,0,3.42,IN,1612392558
277,san patricio,28.017,-97.5169,77.0,57,40,23.02,US,1612392558
278,luba,3.4568,8.5547,80.6,89,20,6.91,GQ,1612392558
279,nurota,40.5614,65.6886,37.4,93,0,6.91,UZ,1612392554
280,ponta do sol,32.6667,-17.1,53.01,70,43,4.0,PT,1612392748
281,kavieng,-2.5744,150.7967,84.34,67,65,5.14,PG,1612392749
282,berlevag,70.8578,29.0864,30.2,80,75,23.02,NO,1612392749
283,longyearbyen,78.2186,15.6401,23.0,74,75,14.97,SJ,1612392424
284,kavaratti,10.5669,72.642,81.14,63,80,6.06,IN,1612392749
285,college,64.8569,-147.8028,-9.4,70,90,3.44,US,1612392468
286,aasiaat,68.7098,-52.8699,-13.05,79,20,8.08,GL,1612392560
287,khomeyn,33.6423,50.0789,37.81,63,0,2.35,IR,1612392560
288,auki,-8.7676,160.7034,81.3,78,98,10.02,SB,1612392560
289,kamaishi,39.2667,141.8833,26.13,89,6,2.86,JP,1612392560
290,rockhampton,-23.3833,150.5,80.6,65,40,10.36,AU,1612392560
291,youkounkoun,12.5333,-13.1333,81.73,18,38,3.29,GN,1612392561
292,sorland,67.667,12.6934,34.57,82,31,23.71,NO,1612392750
293,kualakapuas,-3.0091,114.3876,73.4,100,20,2.3,ID,1612392561
294,kapit,2.0167,112.9333,72.66,95,100,0.47,MY,1612392561
295,nadym,65.5333,72.5167,-1.37,93,93,8.66,RU,1612392562
296,talnakh,69.4865,88.3972,-16.35,87,100,2.77,RU,1612392751
297,florence,43.7667,11.25,57.2,77,75,4.61,IT,1612392562
298,bull savanna,17.8868,-77.5902,73.36,71,37,2.48,JM,1612392562
299,chiredzi,-21.05,31.6667,71.22,96,65,2.71,ZW,1612392562
300,mecca,21.4267,39.8261,75.0,76,0,3.04,SA,1612392562
301,simga,21.6333,81.7,55.98,37,0,1.66,IN,1612392563
302,kirovohrad,48.5132,32.2597,34.07,95,95,6.13,UA,1612392563
303,krasnogvardeyets,52.6804,52.3635,33.94,97,100,7.96,RU,1612392563
304,ola,59.5833,151.2833,-3.69,84,47,13.8,RU,1612392563
305,le port,-20.9373,55.2919,78.8,73,75,13.8,RE,1612392563
306,kampot,10.6167,104.1833,71.6,94,0,2.3,KH,1612392563
307,general pico,-35.6566,-63.7568,74.8,36,38,1.07,AR,1612392273
308,neuquen,-38.9516,-68.0591,91.4,18,0,5.75,AR,1612392514
309,vazante,-17.9869,-46.9078,73.58,84,86,2.21,BR,1612392564
310,wanaka,-44.7,169.15,63.0,57,87,5.99,NZ,1612392564
311,nantucket,41.2835,-70.0995,33.8,86,90,6.91,US,1612392458
312,nanakuli,21.3906,-158.1547,73.4,73,20,11.5,US,1612392564
313,seminole,28.7086,-81.2081,57.2,21,1,10.36,US,1612392564
314,burgeo,47.6167,-57.6152,40.91,94,100,10.78,CA,1612392565
315,flinders,-34.5833,150.8552,75.0,73,14,5.99,AU,1612392753
316,axim,4.8699,-2.2405,80.06,85,23,8.34,GH,1612392753
317,baruun-urt,46.6806,113.2792,7.09,91,100,13.15,MN,1612392565
318,parry sound,45.3501,-80.033,33.8,37,0,7.0,CA,1612392565
319,thunder bay,48.4001,-89.3168,32.0,69,90,8.05,CA,1612392535
320,novyy urengoy,66.0833,76.6333,-2.29,93,98,5.21,RU,1612392565
321,launceston,-41.45,147.1667,64.0,77,75,4.61,AU,1612392565
322,cherskiy,68.75,161.3,8.55,83,98,7.52,RU,1612392754
323,fort nelson,58.8053,-122.7002,-7.6,71,90,4.61,CA,1612392305
324,skjervoy,70.0311,20.9714,30.2,69,90,9.22,NO,1612392566
325,la jutosa,15.6333,-88.0,77.0,53,20,11.5,HN,1612392566
326,necochea,-38.5473,-58.7368,66.99,77,0,3.0,AR,1612392755
327,okhotsk,59.3833,143.3,-15.48,77,100,28.23,RU,1612392566
328,zhigalovo,54.8097,105.1578,15.71,94,100,4.5,RU,1612392567
329,paamiut,61.994,-49.6678,7.77,74,0,8.48,GL,1612392567
330,lata,40.1629,-8.3327,55.0,91,47,4.47,PT,1612392567
331,portland,45.5234,-122.6762,46.99,71,75,3.44,US,1612392446
332,cap-aux-meules,47.3821,-61.8597,41.0,93,92,10.36,CA,1612392567
333,sao joao da barra,-21.6403,-41.0511,77.65,85,2,15.82,BR,1612392452
334,chulym,55.0997,80.9572,8.38,96,73,7.76,RU,1612392567
335,najran,17.4924,44.1277,60.8,33,0,0.94,SA,1612392459
336,vanimo,-2.6741,141.3028,76.06,90,100,3.67,PG,1612392568
337,east london,-33.0153,27.9116,74.84,82,1,11.65,ZA,1612392756
338,dvinskoy,62.1535,45.1175,14.88,96,100,8.01,RU,1612392568
339,lagoa,39.05,-27.9833,54.5,66,74,31.0,PT,1612392568
340,ilo,-17.6394,-71.3375,69.33,79,82,2.15,PE,1612392568
341,gilbues,-9.8317,-45.3439,80.26,61,56,1.28,BR,1612392568
342,mirnyy,62.5353,113.9611,-25.76,85,100,3.67,RU,1612392568
343,sistranda,63.7256,8.834,17.6,67,20,19.57,NO,1612392569
344,sungaipenuh,-2.0833,101.3833,63.75,95,98,3.31,ID,1612392569
345,huangchuan,32.1272,115.0394,41.16,69,0,10.13,CN,1612392569
346,bedesa,8.9,40.7833,58.68,33,0,4.07,ET,1612392569
347,yerbogachen,61.2767,108.0108,-14.53,89,100,2.51,RU,1612392758
348,pitimbu,-7.4706,-34.8086,80.6,78,20,10.36,BR,1612392569
349,richards bay,-28.783,32.0377,74.21,92,100,5.41,ZA,1612392758
350,leningradskiy,69.3833,178.4167,-24.7,85,66,9.84,RU,1612392759
351,gombe,10.2897,11.1673,72.34,20,10,10.65,NG,1612392570
352,kiama,-34.6833,150.8667,75.99,72,11,5.01,AU,1612392570
353,waingapu,-9.6567,120.2641,75.63,83,100,11.41,ID,1612392759
354,nexo,55.0607,15.1306,32.0,100,90,17.27,DK,1612392570
355,mantua,45.1667,10.7833,44.01,98,90,1.99,IT,1612392570
356,okha,53.5739,142.9478,-25.13,79,1,16.31,RU,1612392759
357,yakima,46.4665,-120.6678,48.99,46,40,1.19,US,1612392571
358,tansen,27.8673,83.5467,44.78,59,0,5.35,NP,1612392365
359,utete,-7.986,38.758,72.61,95,19,1.41,TZ,1612392435
360,bandarbeyla,9.4942,50.8122,71.85,73,0,17.16,SO,1612392571
361,batagay-alyta,67.8006,130.4114,-40.63,73,0,2.19,RU,1612392571
362,waddan,29.1614,16.139,53.01,62,0,2.35,LY,1612392571
363,komsomolskiy,40.4272,71.7189,33.8,75,0,6.91,UZ,1612392760
364,omboue,-1.5746,9.2618,78.6,86,100,2.98,GA,1612392572
365,dezful,32.3811,48.4058,56.86,44,0,1.74,IR,1612392572
366,nagahama,35.3833,136.2667,37.0,68,16,7.0,JP,1612392572
367,petropavlovsk-kamchatskiy,53.0452,158.6483,19.4,45,100,17.9,RU,1612392761
368,sidi ali,36.0998,0.4206,55.09,67,100,2.01,DZ,1612392572
369,hami,42.8,93.45,23.38,84,1,1.59,CN,1612392572
370,umm lajj,25.0213,37.2685,76.1,74,58,16.51,SA,1612392573
371,pangnirtung,66.1451,-65.7125,-13.0,58,20,4.61,CA,1612392762
372,pochutla,15.7432,-96.4661,84.2,65,40,6.13,MX,1612392573
373,obama,35.4958,135.746,37.0,68,27,7.0,JP,1612392573
374,chumikan,54.7183,135.315,-23.93,77,8,24.47,RU,1612392573
375,yulara,-25.2406,130.9889,86.0,21,90,10.36,AU,1612392409
376,maragogi,-9.0122,-35.2225,78.01,79,34,7.83,BR,1612392736
377,clyde river,70.4692,-68.5914,-20.2,76,75,3.44,CA,1612392429
378,bilibino,68.0546,166.4372,-5.78,79,72,8.81,RU,1612392574
379,loukhi,66.0764,33.0381,9.03,96,64,5.97,RU,1612392574
380,raudeberg,61.9875,5.1352,24.01,75,0,4.72,NO,1612392574
381,rafaela,-31.2503,-61.4867,77.0,50,71,4.0,AR,1612392574
382,saint-augustin,51.226,-58.6502,35.19,97,100,19.17,CA,1612392574
383,maniitsoq,65.4167,-52.9,2.89,76,100,7.18,GL,1612392574
384,sorata,-15.7667,-68.6333,49.3,83,95,4.7,BO,1612392575
385,katangli,51.7102,143.2326,-23.1,83,2,14.61,RU,1612392575
386,fortuna,40.5982,-124.1573,53.01,57,20,10.36,US,1612392763
387,umm kaddadah,13.6017,26.6876,75.06,18,0,19.82,SD,1612392575
388,kapoeta,4.7717,33.5903,81.95,26,0,9.71,SS,1612392575
389,myitkyina,25.3833,97.4,54.45,56,0,3.13,MM,1612392575
390,pemberton,50.3164,-122.8027,37.99,80,90,1.77,CA,1612392279
391,jemnice,49.019,15.5699,45.0,81,71,11.99,CZ,1612392575
392,honningsvag,70.9821,25.9704,28.4,93,90,32.21,NO,1612392576
393,fort saint james,54.4333,-124.25,9.07,92,100,2.62,CA,1612392576
394,marsh harbour,26.5412,-77.0636,62.94,55,0,20.0,BS,1612392576
395,champerico,14.3,-91.9167,87.8,58,75,13.8,GT,1612392765
396,sembakung,3.8167,117.25,77.0,94,20,3.44,ID,1612392576
397,kentville,45.0835,-64.4988,42.01,93,80,2.3,CA,1612392576
398,tazovskiy,67.4667,78.7,-8.34,91,97,6.98,RU,1612392576
399,belyy yar,53.6039,91.3903,30.2,64,0,8.95,RU,1612392765
400,burnie,-41.0667,145.9167,69.01,68,46,5.57,AU,1612392766
401,ambulu,-8.345,113.6058,76.05,86,100,2.15,ID,1612392577
402,dudinka,69.4058,86.1778,-13.52,89,100,8.03,RU,1612392577
403,khilok,51.3674,110.4676,3.63,88,99,3.89,RU,1612392577
404,rieti,42.4072,12.8592,51.01,78,8,11.5,IT,1612392577
405,marrakesh,31.6315,-8.0083,55.4,82,6,3.44,MA,1612392577
406,cockburn town,21.4612,-71.1419,71.6,60,40,4.61,TC,1612392601
407,tiksi,71.6872,128.8694,-27.29,84,42,2.68,RU,1612392766
408,petauke,-14.2426,31.3253,66.83,95,100,3.06,ZM,1612392578
409,tutoia,-2.7619,-42.2744,80.56,81,85,14.7,BR,1612392578
410,viedma,-40.8135,-62.9967,81.0,33,0,10.87,AR,1612392767
411,tricase,39.9304,18.3553,54.0,100,0,4.61,IT,1612392578
412,naryan-mar,67.6713,53.087,0.88,93,84,7.27,RU,1612392578
413,gambo,4.6482,22.2633,80.22,37,66,1.12,CF,1612392579
414,te anau,-45.4167,167.7167,58.77,52,45,0.09,NZ,1612392579
415,chauk,20.8833,94.8167,60.1,40,0,2.55,MM,1612392579
416,putina,-15.4667,-69.4333,47.89,78,100,5.7,PE,1612392768
417,nyurba,63.2842,118.3319,-22.45,86,100,3.76,RU,1612392579
418,kalemie,-5.9475,29.1947,70.21,78,83,2.89,CD,1612392579
419,san ignacio,17.1561,-89.0714,78.8,44,0,4.61,BZ,1612392579
420,turan,16.0678,108.2208,68.0,94,40,5.35,VN,1612392580
421,codrington,-38.2667,141.9667,70.43,53,99,7.96,AU,1612392412
422,bambanglipuro,-7.95,110.2833,75.78,87,100,3.71,ID,1612392768
423,santa rosa,14.3122,121.1114,78.01,83,20,2.3,PH,1612392580
424,kurumkan,54.3,110.3,-9.24,85,94,1.63,RU,1612392769
425,zvishavane,-20.3267,30.0665,68.04,98,90,3.22,ZW,1612392580
426,coahuayana,18.7333,-103.6833,82.4,57,40,11.5,MX,1612392580
427,sangar,63.9242,127.4739,-42.99,77,87,6.22,RU,1612392580
428,kingussie,57.08,-4.0523,36.0,69,40,10.36,GB,1612392581
429,la ronge,55.1001,-105.2842,6.8,72,100,12.66,CA,1612392769
430,volovo,48.5246,23.5056,39.78,88,100,9.78,UA,1612392581
431,tomsani,44.95,26.2833,39.2,100,90,8.05,RO,1612392581
432,carauari,-4.8828,-66.8958,73.96,98,100,0.76,BR,1612392581
433,magaria,12.9983,8.9099,68.27,22,4,10.94,NE,1612392581
434,murgab,37.4966,61.9714,42.8,61,0,6.91,TM,1612392581
435,jumla,29.2747,82.1838,30.2,80,0,4.12,NP,1612392582
436,quatre cocos,-20.2078,57.7625,75.2,88,75,5.75,MU,1612392770
437,hasaki,35.7333,140.8333,33.8,60,20,4.61,JP,1612392582
438,pacific grove,36.6177,-121.9166,57.0,62,1,8.05,US,1612392582
439,ostrovnoy,68.0531,39.5131,13.19,93,100,13.47,RU,1612392771
440,hauge,58.3436,6.2812,21.99,70,0,15.86,NO,1612392582
441,lodja,-3.4833,23.4333,70.68,95,99,1.97,CD,1612392582
442,elat,29.5581,34.9482,71.6,78,0,4.61,IL,1612392583
443,kudahuvadhoo,2.6708,72.8944,81.39,80,98,17.9,MV,1612392583
444,namibe,-15.1961,12.1522,72.05,72,99,8.88,AO,1612392451
445,lumajang,-8.1335,113.2248,74.19,86,96,2.84,ID,1612392583
446,sibi,29.5448,67.8764,60.84,29,52,7.96,PK,1612392583
447,farah,32.5,62.5,39.9,68,0,1.19,AF,1612392583
448,karratha,-20.7377,116.8463,81.99,81,45,17.4,AU,1612392772
449,byron bay,-28.65,153.6167,75.2,78,36,6.91,AU,1612392584
450,fairbanks,64.8378,-147.7164,-9.4,77,90,5.75,US,1612392602
451,remedios,22.4947,-79.5458,69.8,52,1,10.36,CU,1612392584
452,mansa,29.9833,75.3833,56.17,67,82,11.77,IN,1612392584
453,sabzevar,36.2126,57.6819,40.87,59,11,1.95,IR,1612392584
454,mendi,-6.1761,143.6513,65.07,81,92,1.5,PG,1612392584
455,trinidad,-14.8333,-64.9,87.8,66,75,4.61,BO,1612392362
456,comodoro rivadavia,-45.8667,-67.5,71.6,49,0,18.41,AR,1612392421
457,mopti,14.6667,-4.0,69.24,18,2,4.41,ML,1612392585
458,amahai,-3.3333,128.9167,80.29,77,62,5.59,ID,1612392585
459,belgaum,15.8667,74.5,63.9,43,0,7.31,IN,1612392585
460,tiarei,-17.5333,-149.3333,80.6,74,40,6.91,PF,1612392585
461,jacareacanga,-6.2222,-57.7528,76.91,95,98,1.86,BR,1612392585
462,fukuma,33.7667,130.4667,42.01,70,75,16.11,JP,1612392585
463,itoman,26.1247,127.6694,60.8,72,20,8.05,JP,1612392585
464,korla,41.7597,86.1469,24.42,85,0,2.19,CN,1612392774
465,boueni,-12.9025,45.0761,80.6,83,24,8.05,YT,1612392586
466,pudozh,61.8099,36.5345,16.77,97,100,4.59,RU,1612392586
467,atasu,48.6814,71.6433,16.14,89,100,9.1,KZ,1612392586
468,hervey bay,-25.2986,152.8535,77.0,73,12,10.36,AU,1612392774
469,tessalit,20.1986,1.0114,69.48,20,0,14.34,ML,1612392445
470,la romana,18.4273,-68.9728,82.4,74,20,11.5,DO,1612392587
471,mildura,-34.2,142.15,69.8,46,100,6.91,AU,1612392587
472,kautokeino,69.0125,23.0412,17.08,92,97,17.38,NO,1612392775
473,wuchang,44.9143,127.15,-22.27,85,17,8.5,CN,1612392587
474,port-gentil,-0.7193,8.7815,82.4,83,40,8.05,GA,1612392587
475,morondava,-20.2833,44.2833,83.03,82,77,3.83,MG,1612392587
476,yarim,14.298,44.3779,44.56,52,0,4.79,YE,1612392588
477,payakumbuh,-0.2202,100.6308,70.36,91,99,1.81,ID,1612392588
478,zhangye,38.9342,100.4517,20.64,68,20,0.85,CN,1612392588
479,nizhniy odes,63.6445,54.856,-0.42,94,97,3.96,RU,1612392776
480,mafeteng,-29.823,27.2374,55.8,97,89,2.21,LS,1612392588
481,pericos,25.05,-107.7,87.8,33,75,3.44,MX,1612392589
482,srednekolymsk,67.45,153.6833,-24.88,86,47,2.46,RU,1612392589
483,samana,19.2056,-69.3369,77.0,88,75,7.7,DO,1612392589
484,havoysund,70.9963,24.6622,28.4,68,40,23.02,NO,1612392589
485,luderitz,-26.6481,15.1594,66.09,73,0,13.53,NA,1612392777
486,riyadh,24.6877,46.7219,68.0,28,0,4.61,SA,1612392386
487,hay river,60.8156,-115.7999,-14.8,70,100,8.05,CA,1612392313
488,humaita,-7.5061,-63.0208,78.37,92,93,3.58,BR,1612392590
489,otjimbingwe,-22.35,16.1333,74.28,50,98,2.95,NA,1612392590
490,saint-joseph,-21.3667,55.6167,77.0,73,0,2.3,RE,1612392591
491,am timan,11.0297,20.2827,76.48,18,0,8.81,TD,1612392591
492,oktyabrskoye,43.0645,44.7417,30.2,86,87,4.47,RU,1612392591
493,garissa,-0.4536,39.6401,76.24,73,48,9.82,KE,1612392591
494,lakatoro,-16.0999,167.4164,83.64,69,100,7.99,VU,1612392591
495,idenao,4.2475,9.0047,80.6,89,20,6.91,CM,1612392592
496,sabang,5.8933,95.3214,81.68,77,95,21.45,ID,1612392624
497,biak,-0.9131,122.8766,76.42,83,100,2.19,ID,1612392778
498,villa maria,-32.4075,-63.2402,73.0,80,0,1.99,AR,1612392593
499,outjo,-20.1167,16.15,70.5,54,24,9.89,NA,1612392593
500,shalya,57.2471,58.7298,5.63,93,90,3.0,RU,1612392594
501,prince rupert,54.3161,-130.3201,39.2,93,90,9.22,CA,1612392594
502,colorado springs,38.8339,-104.8214,62.6,21,75,9.22,US,1612392779
503,samandag,36.0842,35.9771,51.8,82,40,5.75,TR,1612392595
504,huaral,-11.495,-77.2078,71.6,73,20,9.22,PE,1612392595
505,nyrob,60.733,56.7202,0.32,93,98,4.38,RU,1612392595
506,kloulklubed,7.0419,134.2556,80.6,78,75,3.44,PW,1612392595
507,qaqortoq,60.7167,-46.0333,15.8,48,90,11.5,GL,1612392780
508,kharp,66.8014,65.8081,-3.14,88,87,3.2,RU,1612392596
509,sitka,57.0531,-135.33,39.2,70,90,9.22,US,1612392780
510,ingham,42.6,-84.3833,33.8,47,1,5.21,US,1612392596
511,raymondville,26.4815,-97.7831,78.8,50,40,16.11,US,1612392596
512,ambilobe,-13.2,49.05,75.25,90,78,2.13,MG,1612392597
513,onverwacht,5.5833,-55.1833,80.6,83,40,12.66,SR,1612392597
514,xichang,27.8964,102.2634,39.88,71,2,0.92,CN,1612392597
515,louis trichardt,-23.0439,29.9032,65.37,94,6,3.56,ZA,1612392597
516,hovd,48.0056,91.6419,12.83,84,98,2.93,MN,1612392597
517,patacamaya,-17.2333,-67.9167,51.3,70,83,12.73,BO,1612392598
518,jega,12.2175,4.3792,75.42,17,2,11.63,NG,1612392598
519,saint george,37.1041,-113.5841,66.0,29,1,17.27,US,1612392781
520,nara,34.6851,135.8049,36.0,80,20,5.75,JP,1612392522
521,mehamn,71.0357,27.8492,28.4,93,90,28.77,NO,1612392599
522,maceio,-9.6658,-35.7353,77.0,83,0,6.91,BR,1612392560
523,bosaso,11.2842,49.1816,70.2,67,4,1.7,SO,1612392599
524,hualmay,-11.0964,-77.6139,73.02,70,76,8.34,PE,1612392599
525,neijiang,29.5835,105.0622,51.28,74,42,2.82,CN,1612392600
526,hambantota,6.1241,81.1185,75.9,74,77,17.72,LK,1612392600
527,jurm,36.8648,70.8342,23.61,66,0,6.31,AF,1612392600
528,miranda,3.2499,-76.2281,72.93,74,100,1.41,CO,1612392601
529,santa fe,-31.6333,-60.7,79.0,60,44,4.0,AR,1612392601
530,shihezi,44.3,86.0333,20.46,98,100,2.71,CN,1612392601
531,fenyi,27.8112,114.6681,54.63,88,100,2.98,CN,1612392601
532,aklavik,68.2191,-135.0107,-38.2,67,1,2.3,CA,1612392783
533,oriximina,-1.7656,-55.8661,82.53,66,37,3.06,BR,1612392602
534,gusev,54.5922,22.1997,25.57,96,100,11.95,RU,1612392602
535,gonbad-e qabus,37.25,55.1672,51.19,49,99,0.69,IR,1612392602
536,sandy bay,-42.913,147.3532,61.0,94,75,10.36,AU,1612392784
537,port shepstone,-30.7414,30.455,75.34,79,100,4.05,ZA,1612392603
538,leh,34.1667,77.5833,5.97,63,100,4.36,IN,1612392603
539,port hedland,-20.3167,118.5667,80.6,83,92,5.75,AU,1612392603
540,kholodnyy,62.7167,147.95,-16.38,85,100,6.13,RU,1612392604
541,kamenka,51.3223,42.7678,36.0,97,100,7.94,RU,1612392784
542,shelburne,44.0787,-80.2041,26.01,64,0,14.07,CA,1612392604
543,anadyr,64.75,177.4833,-0.4,78,75,38.03,RU,1612392785
544,merauke,-8.4667,140.3333,78.31,92,74,12.06,ID,1612392605
545,nouadhibou,20.931,-17.0347,62.6,94,66,20.71,MR,1612392785
546,olonets,60.9847,32.9698,16.93,97,100,5.53,RU,1612392605
547,esperance,-33.8667,121.9,59.0,55,90,11.5,AU,1612392786
548,palafrugell,41.9174,3.1631,51.01,100,58,3.85,ES,1612392605
549,tocopilla,-22.092,-70.1979,70.97,62,65,6.64,CL,1612392606
550,koumac,-20.5667,164.2833,80.11,78,80,12.46,NC,1612392606
551,vung tau,10.346,107.0843,73.53,76,11,5.48,VN,1612392606
552,puerto princesa,9.7392,118.7353,80.6,74,20,13.8,PH,1612392606
