,City,Latitude,Longitude,Max_temp,Humidity,Clouds,Wind_speed,Country,Date
0,new%20norfolk,-42.7826,147.0587,72.0,56,75,12.66,AU,1612151730
1,nauta,-4.5061,-73.5757,73.22,96,99,0.56,PE,1612151730
2,cidreira,-30.1811,-50.2056,73.31,93,100,6.71,BR,1612151538
3,yellowknife,62.456,-114.3525,-7.6,84,75,5.75,CA,1612151533
4,bilibino,68.0546,166.4372,-6.0,85,100,12.24,RU,1612151730
5,jamestown,42.097,-79.2353,26.01,80,90,8.05,US,1612151731
6,albany,42.6001,-73.9662,16.0,55,100,2.26,US,1612151731
7,norman%20wells,65.282,-126.8329,-23.8,76,75,5.75,CA,1612151731
8,adrar,20.5022,-10.0711,64.04,27,83,8.97,MR,1612151731
9,tuy%20hoa,13.0833,109.3,75.29,74,85,12.53,VN,1612151731
10,pangnirtung,66.1451,-65.7125,-6.92,86,100,7.02,CA,1612151731
11,basco,20.4487,121.9702,73.04,78,23,14.14,PH,1612151563
12,cururupu,-1.8283,-44.8683,76.21,90,92,3.91,BR,1612151732
13,rikitea,-23.1203,-134.9692,79.63,64,19,6.71,PF,1612151732
14,ribeira%20grande,38.5167,-28.7,63.34,84,99,33.13,PT,1612151732
15,bonavista,48.6499,-53.1147,30.0,93,100,6.91,CA,1612151732
16,cape%20town,-33.9258,18.4232,64.0,72,0,21.85,ZA,1612151454
17,yatou,37.15,122.3833,43.21,57,26,17.65,CN,1612151733
18,maceio,-9.6658,-35.7353,73.4,94,40,3.44,BR,1612151733
19,saskylakh,71.9167,114.0833,-31.09,83,62,7.49,RU,1612151733
20,kodiak,57.79,-152.4072,30.2,64,1,5.75,US,1612151733
21,khatanga,71.9667,102.5,-36.74,82,0,8.81,RU,1612151541
22,qaanaaq,77.484,-69.3632,-4.47,88,100,1.86,GL,1612151734
23,belousovka,50.1339,82.5239,-7.6,84,75,1.92,KZ,1612151734
24,geraldton,-28.7667,114.6,102.2,14,0,21.85,AU,1612151734
25,busselton,-33.65,115.3333,84.99,37,0,4.0,AU,1612151541
26,cabedelo,-6.9811,-34.8339,78.8,83,20,9.22,BR,1612151734
27,san%20quintin,30.4833,-115.95,59.27,66,98,7.94,MX,1612151553
28,norman%20wells,65.282,-126.8329,-23.8,76,75,5.75,CA,1612151731
29,aklavik,68.2191,-135.0107,-20.2,76,100,5.75,CA,1612151734
30,mezen,65.8522,44.24,12.15,96,97,6.06,RU,1612151735
31,impfondo,1.6381,18.0667,71.55,90,100,3.51,CG,1612151550
32,tuktoyaktuk,69.4541,-133.0374,-27.4,75,20,3.44,CA,1612151735
33,puerto%20ayora,-0.7393,-90.3518,78.01,91,36,3.0,EC,1612151735
34,bac%20lieu,9.285,105.7244,84.27,60,55,17.22,VN,1612151735
35,cortez,37.3489,-108.5859,26.6,80,1,5.75,US,1612151735
36,wahpeton,46.2652,-96.6059,24.8,93,90,10.36,US,1612151736
37,cape%20town,-33.9258,18.4232,64.0,72,0,21.85,ZA,1612151454
38,punta%20arenas,-53.15,-70.9167,53.6,62,90,29.93,CL,1612151626
39,oltu,40.5498,42.0013,23.27,88,11,7.61,TR,1612151736
40,hithadhoo,-0.6,73.0833,82.11,78,41,9.95,MV,1612151736
41,chokurdakh,70.6333,147.9167,-18.29,87,100,11.25,RU,1612151529
42,pasaje,-3.3333,-79.8167,77.04,74,87,0.43,EC,1612151737
43,mahanoro,-19.9,48.8,79.63,78,6,4.65,MG,1612151737
44,vao,-22.6667,167.4833,75.83,77,100,24.56,NC,1612151737
45,pevek,69.7008,170.3133,-21.3,86,37,4.12,RU,1612151737
46,along,28.1667,94.7667,66.04,31,5,0.58,IN,1612151738
47,ushuaia,-54.8,-68.3,50.0,76,75,13.8,AR,1612151738
48,bathsheba,13.2167,-59.5167,78.8,65,40,20.71,BB,1612151738
49,santa%20maria,-29.6842,-53.8069,71.6,100,20,1.14,BR,1612151574
50,tasiilaq,65.6145,-37.6368,14.0,62,90,1.14,GL,1612151738
51,hobart,-42.8794,147.3294,73.4,53,75,11.5,AU,1612151528
52,yumen,40.2833,97.2,27.99,64,0,7.16,CN,1612151738
53,chopovychi,50.8332,28.9533,16.25,96,34,4.03,UA,1612151739
54,georgetown,5.4112,100.3354,87.01,62,20,9.22,MY,1612151534
55,fairbanks,64.8378,-147.7164,-5.8,84,90,2.21,US,1612151739
56,barrow,71.2906,-156.7887,-16.6,76,1,11.5,US,1612151739
57,son%20la,21.3167,103.9,67.06,71,99,1.99,VN,1612151739
58,chuy,-33.6971,-53.4616,69.85,91,100,12.26,UY,1612151739
59,longyearbyen,78.2186,15.6401,6.8,33,75,12.66,SJ,1612151557
60,kavieng,-2.5744,150.7967,84.42,78,100,15.14,PG,1612151570
61,shelburne,44.0787,-80.2041,14.0,62,1,5.75,CA,1612151740
62,nantucket,41.2835,-70.0995,30.0,74,90,4.61,US,1612151740
63,atuona,-9.8,-139.0333,78.85,76,12,19.08,PF,1612151740
64,avarua,-21.2078,-159.775,84.2,70,75,5.75,CK,1612151526
65,punta%20arenas,-53.15,-70.9167,53.6,62,90,29.93,CL,1612151626
66,saint-pierre,-21.3393,55.4781,84.2,51,0,8.05,RE,1612151741
67,leningradskiy,69.3833,178.4167,-18.99,86,100,13.56,RU,1612151741
68,sept-iles,50.2001,-66.3821,21.2,58,9,5.75,CA,1612151741
69,xining,36.6167,101.7667,23.04,56,0,3.85,CN,1612151741
70,margate,51.3813,1.3862,41.0,91,100,1.01,GB,1612151742
71,kaoma,-14.7833,24.8,65.66,94,100,2.75,ZM,1612151742
72,mataura,-46.1927,168.8643,74.77,46,63,5.32,NZ,1612151742
73,airai,-8.9266,125.4092,71.11,80,90,6.62,TL,1612151742
74,port%20augusta,-32.5,137.7667,73.4,56,93,25.32,AU,1612151742
75,grand%20gaube,-20.0064,57.6608,82.0,79,16,8.99,MU,1612151743
76,bethel,41.3712,-73.414,19.99,66,100,3.0,US,1612151639
77,morbach,49.8167,7.1167,37.99,100,75,16.11,DE,1612151743
78,ola,59.5833,151.2833,-13.0,81,89,13.69,RU,1612151743
79,wuwei,37.9281,102.6414,28.51,64,0,4.54,CN,1612151743
80,torbay,47.6666,-52.7314,30.0,93,90,21.85,CA,1612151743
81,obeliai,55.9667,25.15,22.71,98,100,11.56,LT,1612151743
82,haikou,20.0458,110.3417,71.6,83,75,8.95,CN,1612151481
83,san%20juan%20del%20sur,11.2529,-85.8705,78.19,75,0,24.58,NI,1612151744
84,rokupr,8.6717,-12.395,69.64,91,0,1.39,SL,1612151744
85,nikolskoye,59.7035,30.7861,24.8,86,75,11.18,RU,1612151744
86,provideniya,64.3833,-173.3,-1.25,90,100,25.43,RU,1612151744
87,mercedes,-34.6515,-59.4307,64.0,99,100,1.01,AR,1612151744
88,castro,-24.7911,-50.0119,62.62,94,78,2.28,BR,1612151745
89,faya,18.3851,42.4509,51.8,53,0,4.61,SA,1612151745
90,zhigansk,66.7697,123.3711,-42.45,78,51,5.21,RU,1612151454
91,skovorodino,53.9833,123.9167,-25.47,73,0,9.31,RU,1612151745
92,san%20quintin,30.4833,-115.95,59.27,66,98,7.94,MX,1612151553
93,constitucion,-35.3333,-72.4167,56.14,89,2,8.37,CL,1612151746
94,bredasdorp,-34.5322,20.0403,60.01,81,95,10.96,ZA,1612151523
95,port%20alfred,-33.5906,26.891,66.99,85,89,5.01,ZA,1612151746
96,upernavik,72.7868,-56.1549,3.83,93,100,6.93,GL,1612151535
97,touros,-5.1989,-35.4608,78.8,83,40,5.75,BR,1612151746
98,port%20elizabeth,-33.918,25.5701,66.2,77,40,16.11,ZA,1612151663
99,talnakh,69.4865,88.3972,-15.92,79,100,8.86,RU,1612151747
100,kahului,20.8947,-156.47,77.0,61,20,17.27,US,1612151706
101,druzhba,52.0428,33.9453,12.24,95,2,5.84,UA,1612151747
102,port%20alfred,-33.5906,26.891,66.99,85,89,5.01,ZA,1612151746
103,pustoshka,56.3355,29.369,24.42,97,99,9.66,RU,1612151747
104,punta%20arenas,-53.15,-70.9167,53.6,62,90,29.93,CL,1612151626
105,ketchikan,55.3422,-131.6461,32.0,100,90,3.51,US,1612151578
106,kapaa,22.0752,-159.319,75.2,69,40,10.36,US,1612151525
107,correntina,-13.3433,-44.6367,72.77,55,28,1.16,BR,1612151564
108,guerrero%20negro,27.9769,-114.0611,64.04,56,100,2.39,MX,1612151541
109,port%20hedland,-20.3167,118.5667,78.8,100,90,23.02,AU,1612151749
110,killybegs,54.6333,-8.45,39.0,94,92,10.0,IE,1612151749
111,hermanus,-34.4187,19.2345,60.01,81,98,13.69,ZA,1612151749
112,victoria,22.2855,114.1577,71.01,75,56,8.32,HK,1612151535
113,tromso,69.6496,18.957,26.6,86,75,5.75,NO,1612151749
114,arraial%20do%20cabo,-22.9661,-42.0278,76.37,86,100,25.37,BR,1612151462
115,punta%20arenas,-53.15,-70.9167,53.6,62,90,29.93,CL,1612151626
116,labuhan,-6.8844,112.2051,84.49,74,81,13.89,ID,1612151750
117,pittsburg,38.028,-121.8847,57.0,67,75,4.61,US,1612151750
118,punta%20arenas,-53.15,-70.9167,53.6,62,90,29.93,CL,1612151626
119,benjamin%20aceval,-24.9667,-57.5667,75.2,88,0,4.61,PY,1612151750
120,carnarvon,-24.8667,113.6333,104.0,17,26,17.27,AU,1612151750
121,dwarka,22.2394,68.9678,71.53,46,0,11.97,IN,1612151750
122,srednekolymsk,67.45,153.6833,-21.24,86,100,8.43,RU,1612151750
123,vostok,46.4856,135.8833,15.31,97,100,0.89,RU,1612151751
124,mahebourg,-20.4081,57.7,82.4,74,40,11.5,MU,1612151751
125,karla,59.3723,24.9275,26.01,93,0,9.22,EE,1612151751
126,ribeira%20grande,38.5167,-28.7,63.34,84,99,33.13,PT,1612151732
127,vilyuysk,63.7553,121.6247,-38.2,81,100,6.8,RU,1612151751
128,dingle,10.9995,122.6711,82.87,73,42,14.41,PH,1612151518
129,marzuq,14.4,46.4667,56.93,42,11,1.68,YE,1612151751
130,port%20alfred,-33.5906,26.891,66.99,85,89,5.01,ZA,1612151746
131,port%20alfred,-33.5906,26.891,66.99,85,89,5.01,ZA,1612151746
132,ambilobe,-13.2,49.05,75.18,87,88,2.68,MG,1612151523
133,new%20norfolk,-42.7826,147.0587,72.0,56,75,12.66,AU,1612151730
134,bluff,-46.6,168.3333,60.82,70,36,16.6,NZ,1612151752
135,samarai,-10.6167,150.6667,84.9,72,70,10.0,PG,1612151530
136,codrington,-38.2667,141.9667,63.66,72,80,13.82,AU,1612151752
137,mildura,-34.2,142.15,80.6,22,40,10.36,AU,1612151753
138,tuatapere,-46.1333,167.6833,63.82,65,71,5.28,NZ,1612151560
139,awjilah,29.1081,21.2869,59.23,31,0,14.36,LY,1612151569
140,oranjemund,-28.55,16.4333,62.94,96,44,8.1,NA,1612151753
141,bealanana,-14.55,48.7333,65.19,88,96,3.58,MG,1612151753
142,almirante,9.3,-82.4,66.99,66,58,8.01,PA,1612151753
143,hasaki,35.7333,140.8333,48.2,61,75,2.3,JP,1612151753
144,kaitangata,-46.2817,169.8464,66.99,62,7,8.01,NZ,1612151754
145,mangai,-4.05,19.5333,70.0,88,94,1.57,CD,1612151754
146,charcas,23.1333,-101.1167,52.9,85,7,13.33,MX,1612151754
147,mangalagiri,16.4333,80.55,78.8,83,3,4.61,IN,1612151754
148,puerto%20ayora,-0.7393,-90.3518,78.01,91,36,3.0,EC,1612151735
149,mayo,38.8876,-76.5119,32.0,100,90,10.36,US,1612151754
150,mar%20del%20plata,-38.0023,-57.5575,64.0,72,75,11.5,AR,1612151713
151,santo%20antonio%20do%20ica,-3.1022,-67.9397,74.32,96,100,0.78,BR,1612151755
152,bambous%20virieux,-20.3428,57.7575,82.4,74,40,11.5,MU,1612151755
153,launceston,-41.45,147.1667,71.01,77,90,5.75,AU,1612151755
154,port%20alfred,-33.5906,26.891,66.99,85,89,5.01,ZA,1612151746
155,ilulissat,69.2167,-51.1,8.6,52,75,6.91,GL,1612151756
156,quatre%20cocos,-20.2078,57.7625,82.4,74,40,11.5,MU,1612151756
157,poum,-20.2333,164.0167,80.98,72,100,16.46,NC,1612151756
158,puerto%20ayora,-0.7393,-90.3518,78.01,91,36,3.0,EC,1612151735
159,vaini,-21.2,-175.2,78.8,94,90,9.22,TO,1612151756
160,ahipara,-35.1667,173.1667,68.85,63,9,7.83,NZ,1612151541
161,libertador%20general%20san%20martin,-23.8064,-64.7876,70.0,98,99,1.66,AR,1612151757
162,dikson,73.5069,80.5464,-24.95,80,97,9.04,RU,1612151757
163,luderitz,-26.6481,15.1594,65.26,79,0,17.58,NA,1612151590
164,hammond,41.5834,-87.5,33.8,69,90,11.5,US,1612151757
165,puerto%20ayora,-0.7393,-90.3518,78.01,91,36,3.0,EC,1612151735
166,sistranda,63.7256,8.834,26.6,86,20,14.97,NO,1612151757
167,la%20ronge,55.1001,-105.2842,17.6,86,30,5.75,CA,1612151757
168,tairua,-37.0167,175.85,69.31,59,0,6.98,NZ,1612151758
169,domoni,-12.2569,44.5319,80.76,72,42,4.16,KM,1612151758
170,port%20lincoln,-34.7333,135.8667,66.36,57,37,17.85,AU,1612151758
171,kensington,-33.9167,151.2167,80.01,65,20,13.8,AU,1612151758
172,ulladulla,-35.35,150.4667,77.0,65,75,12.66,AU,1612151758
173,port%20alfred,-33.5906,26.891,66.99,85,89,5.01,ZA,1612151746
174,klaksvik,62.2266,-6.589,24.8,86,99,2.3,FO,1612151758
175,filadelfia,39.9523,-75.1638,27.0,86,90,17.27,US,1612151748
176,zdvinsk,54.7021,78.661,-0.36,85,99,6.6,RU,1612151759
177,husavik,66.0449,-17.3389,-5.8,77,0,4.61,IS,1612151759
178,mehamn,71.0357,27.8492,15.8,86,0,10.36,NO,1612151759
179,goderich,43.7501,-81.7165,15.8,57,100,10.36,CA,1612151759
180,fortuna,40.5982,-124.1573,55.0,94,90,21.85,US,1612151759
181,arraial%20do%20cabo,-22.9661,-42.0278,76.37,86,100,25.37,BR,1612151462
182,moskovskiy,55.5991,37.355,26.6,80,75,17.9,RU,1612151760
183,cape%20town,-33.9258,18.4232,64.0,72,0,21.85,ZA,1612151454
184,salinopolis,-0.6136,-47.3561,79.25,84,95,11.39,BR,1612151543
185,coihaique,-45.5752,-72.0662,57.2,62,0,4.61,CL,1612151760
186,raga,8.4596,25.678,63.3,28,51,2.93,SS,1612151760
187,czersk,53.7959,17.9765,21.99,89,5,4.88,PL,1612151761
188,high%20prairie,55.4334,-116.4858,12.2,79,64,8.05,CA,1612151761
189,pisco,-13.7,-76.2167,71.01,77,0,10.36,PE,1612151761
190,punta%20arenas,-53.15,-70.9167,53.6,62,90,29.93,CL,1612151626
191,sawang%20daen%20din,17.4753,103.4575,84.99,50,1,5.61,TH,1612151761
192,san%20policarpo,12.1791,125.5072,80.19,83,97,15.01,PH,1612151761
193,sinnamary,5.3833,-52.95,77.59,82,98,14.47,GF,1612151762
194,odweyne,9.4092,45.064,62.33,37,0,2.1,SO,1612151762
195,sobolevo,54.4299,31.8996,14.67,97,97,9.24,RU,1612151762
196,sadovoye,47.7764,44.5089,37.67,95,97,4.52,RU,1612151762
197,laguna,38.421,-121.4238,55.99,67,20,5.12,US,1612151497
198,lerwick,60.1545,-1.1494,30.2,74,65,11.5,GB,1612151763
199,kasongo-lunda,-6.4667,16.8167,67.51,90,96,0.43,CD,1612151763
200,severo-kurilsk,50.6789,156.125,21.63,93,99,42.26,RU,1612151763
201,montepuez,-13.1256,38.9997,69.55,99,100,3.96,MZ,1612151763
202,cabo%20san%20lucas,22.8909,-109.9124,66.0,88,20,1.43,MX,1612151763
203,general%20roca,-39.0333,-67.5833,60.8,67,0,6.91,AR,1612151763
204,lebu,-37.6167,-73.65,56.71,87,19,12.93,CL,1612151764
205,mar%20del%20plata,-38.0023,-57.5575,64.0,72,75,11.5,AR,1612151713
206,ust-kan,50.9276,84.761,19.47,84,100,3.6,RU,1612151764
207,awash,8.9833,40.1667,60.55,57,0,1.72,ET,1612151764
208,agra,27.1833,78.0167,62.33,32,0,3.42,IN,1612151703
209,punta%20arenas,-53.15,-70.9167,53.6,62,90,29.93,CL,1612151626
210,biak,-0.9131,122.8766,83.17,65,100,0.67,ID,1612151764
211,puerto%20ayora,-0.7393,-90.3518,78.01,91,36,3.0,EC,1612151735
212,new%20norfolk,-42.7826,147.0587,72.0,56,75,12.66,AU,1612151730
213,tura,25.5198,90.2201,70.45,36,0,1.88,IN,1612151534
214,lorengau,-2.0226,147.2712,83.35,77,100,11.18,PG,1612151765
215,punta%20arenas,-53.15,-70.9167,53.6,62,90,29.93,CL,1612151626
216,port%20alfred,-33.5906,26.891,66.99,85,89,5.01,ZA,1612151746
217,saint-augustin,51.226,-58.6502,11.88,91,0,11.34,CA,1612151765
218,kingseat,56.0974,-3.4084,33.01,100,0,2.3,GB,1612151765
219,acajutla,13.5928,-89.8275,77.63,71,2,8.32,SV,1612151766
220,thompson,55.7435,-97.8558,5.0,85,40,2.3,CA,1612151766
221,nanortalik,60.1432,-45.2371,32.49,90,100,6.33,GL,1612151766
222,karacakoy,41.4029,28.3834,53.6,58,0,3.44,TR,1612151766
223,aswan,24.0934,32.907,53.64,48,0,6.49,EG,1612151766
224,pochutla,15.7432,-96.4661,77.0,82,0,3.04,MX,1612151767
225,fontem,5.4685,9.8818,64.02,83,67,1.12,CM,1612151767
226,asau,46.4333,26.4,28.99,72,100,2.71,RO,1612151767
227,mar%20del%20plata,-38.0023,-57.5575,64.0,72,75,11.5,AR,1612151713
228,san%20carlos%20de%20bariloche,-41.1456,-71.3082,53.6,71,75,6.91,AR,1612151609
229,punta%20arenas,-53.15,-70.9167,53.6,62,90,29.93,CL,1612151626
230,vestmanna,62.1564,-7.1664,24.8,86,73,2.3,FO,1612151768
231,walcz,53.2779,16.4712,18.0,96,76,4.88,PL,1612151768
232,kieta,-6.2167,155.6333,85.33,74,56,13.27,PG,1612151768
233,kalawit,8.0667,122.5167,81.34,77,100,16.89,PH,1612151768
234,atambua,-9.1061,124.8925,78.62,79,80,6.67,ID,1612151768
235,makakilo%20city,21.3469,-158.0858,80.6,47,1,8.05,US,1612151552
236,pathein,16.7833,94.7333,86.67,34,8,8.32,MM,1612151768
237,ploemeur,47.7333,-3.4333,51.8,93,90,13.8,FR,1612151769
238,norman%20wells,65.282,-126.8329,-23.8,76,75,5.75,CA,1612151731
239,huadian,42.9633,126.7478,7.5,90,98,14.7,CN,1612151769
240,iqaluit,63.7506,-68.5145,5.0,72,90,9.22,CA,1612151769
241,lagoa,39.05,-27.9833,61.74,87,100,21.72,PT,1612151769
242,kailua,21.4022,-157.7394,80.6,64,40,9.22,US,1612151769
243,busko-zdroj,50.4708,20.7188,16.0,1,94,5.19,PL,1612151770
244,butaritari,3.0707,172.7902,80.96,82,97,13.0,KI,1612151770
245,bengkulu,-3.8004,102.2655,85.46,59,77,5.99,ID,1612151770
246,kupang,-10.1667,123.5833,84.2,84,40,19.57,ID,1612151602
247,chaiya,9.3862,99.1986,84.2,74,20,9.22,TH,1612151770
248,aranos,-24.1333,19.1167,70.18,25,100,13.13,NA,1612151770
249,gambela,8.25,34.5833,76.73,43,21,3.04,ET,1612151770
250,te%20anau,-45.4167,167.7167,73.31,49,10,2.71,NZ,1612151770
251,sao%20joao%20da%20barra,-21.6403,-41.0511,76.95,82,82,19.66,BR,1612151771
252,pacific%20grove,36.6177,-121.9166,54.0,82,1,6.13,US,1612151571
253,uarini,-2.99,-65.1083,73.63,97,100,1.28,BR,1612151771
254,punta%20arenas,-53.15,-70.9167,53.6,62,90,29.93,CL,1612151626
255,punta%20arenas,-53.15,-70.9167,53.6,62,90,29.93,CL,1612151626
256,morgan%20city,29.6994,-91.2068,53.6,62,40,19.57,US,1612151771
257,puerto%20ayora,-0.7393,-90.3518,78.01,91,36,3.0,EC,1612151735
258,oroville,39.5138,-121.5564,53.6,66,20,4.61,US,1612151772
259,douglas,41.3,-96.167,30.2,80,90,6.91,US,1612151661
260,napasar,27.9667,73.55,69.19,20,0,6.04,IN,1612151772
261,puerto%20carreno,6.189,-67.4859,78.49,72,82,9.1,CO,1612151772
262,kokopo,-4.352,152.2633,85.39,70,42,10.76,PG,1612151772
263,mogadishu,2.0371,45.3438,74.16,83,32,15.75,SO,1612151772
264,ixtapa,20.7,-105.2,69.01,94,1,1.92,MX,1612151772
265,nouadhibou,20.931,-17.0347,64.4,82,0,20.71,MR,1612151773
266,korla,41.7597,86.1469,28.54,74,87,4.59,CN,1612151773
267,ancud,-41.8697,-73.8203,54.0,87,0,5.75,CL,1612151773
268,galesong,-5.3166,119.3661,82.4,83,40,5.75,ID,1612151773
269,alekseyevsk,57.8406,108.3492,-30.96,79,99,4.47,RU,1612151773
270,darnah,32.767,22.6367,61.3,42,57,27.31,LY,1612151494
271,san%20cristobal,7.7669,-72.225,66.52,72,98,2.53,VE,1612151773
272,punta%20arenas,-53.15,-70.9167,53.6,62,90,29.93,CL,1612151626
273,mar%20del%20plata,-38.0023,-57.5575,64.0,72,75,11.5,AR,1612151713
274,arraial%20do%20cabo,-22.9661,-42.0278,76.37,86,100,25.37,BR,1612151462
275,ndende,-2.4008,11.3581,72.32,96,99,1.25,GA,1612151774
276,san%20rafael%20del%20sur,11.8485,-86.4384,80.6,69,40,4.61,NI,1612151774
277,east%20london,-33.0153,27.9116,66.2,94,75,19.57,ZA,1612151775
278,mount%20gambier,-37.8333,140.7667,66.2,59,90,18.41,AU,1612151775
279,saldanha,-33.0117,17.9442,63.23,75,34,21.43,ZA,1612151775
280,ponta%20do%20sol,32.6667,-17.1,55.99,52,0,1.99,PT,1612151775
281,pringsewu,-5.3582,104.9744,85.48,69,12,4.59,ID,1612151775
282,saint%20george,37.1041,-113.5841,50.0,46,1,4.61,US,1612151542
283,alta%20floresta,-9.8756,-56.0861,71.17,94,40,0.51,BR,1612151776
284,anloga,5.7947,0.8973,82.4,89,20,4.61,GH,1612151482
285,portland,45.5234,-122.6762,48.99,87,90,5.75,US,1612151629
286,ribeira%20grande,38.5167,-28.7,63.34,84,99,33.13,PT,1612151732
287,najran,17.4924,44.1277,51.8,58,0,0.89,SA,1612151776
288,meadow%20lake,34.8014,-106.5436,44.6,31,40,6.91,US,1612151776
289,cape%20town,-33.9258,18.4232,64.0,72,0,21.85,ZA,1612151454
290,puerto%20ayora,-0.7393,-90.3518,78.01,91,36,3.0,EC,1612151735
291,namibe,-15.1961,12.1522,72.88,72,84,3.85,AO,1612151777
292,kalmunai,7.4167,81.8167,81.28,77,1,8.84,LK,1612151777
293,florestopolis,-22.8633,-51.3872,69.8,100,20,2.3,BR,1612151777
294,port%20elizabeth,-33.918,25.5701,66.2,77,40,16.11,ZA,1612151663
295,comodoro%20rivadavia,-45.8667,-67.5,62.6,59,0,5.75,AR,1612151777
296,nalut,30.3333,10.85,45.57,58,0,7.63,LY,1612151777
297,maracay,10.2469,-67.5958,71.74,80,97,3.09,VE,1612151777
298,new%20norfolk,-42.7826,147.0587,72.0,56,75,12.66,AU,1612151730
299,punta%20arenas,-53.15,-70.9167,53.6,62,90,29.93,CL,1612151626
300,san%20patricio,28.017,-97.5169,59.0,44,1,9.22,US,1612151778
301,antalaha,-14.9003,50.2788,78.82,76,98,4.61,MG,1612151778
302,punta%20arenas,-53.15,-70.9167,53.6,62,90,29.93,CL,1612151626
303,caravelas,-17.7125,-39.2481,74.48,87,16,4.72,BR,1612151778
304,mar%20del%20plata,-38.0023,-57.5575,64.0,72,75,11.5,AR,1612151713
305,kloulklubed,7.0419,134.2556,86.0,70,75,12.66,PW,1612151779
306,trinidad,-14.8333,-64.9,75.52,94,100,4.79,BO,1612151779
307,haines%20junction,60.7522,-137.5108,3.2,66,100,9.22,CA,1612151532
308,puerto%20del%20rosario,28.5004,-13.8627,62.6,82,0,9.22,ES,1612151779
309,boueni,-12.9025,45.0761,78.8,89,65,2.3,YT,1612151779
310,pesochnoye,58.006,39.1772,18.3,96,99,10.07,RU,1612151779
311,port%20lincoln,-34.7333,135.8667,66.36,57,37,17.85,AU,1612151758
312,hilo,19.7297,-155.09,77.0,61,1,8.05,US,1612151781
313,mar%20del%20plata,-38.0023,-57.5575,64.0,72,75,11.5,AR,1612151713
314,cape%20town,-33.9258,18.4232,64.0,72,0,21.85,ZA,1612151454
315,gamba,-2.65,10.0,77.04,86,100,4.94,GA,1612151781
316,punta%20arenas,-53.15,-70.9167,53.6,62,90,29.93,CL,1612151626
317,yerbogachen,61.2767,108.0108,-30.55,81,70,5.88,RU,1612151781
318,punta%20arenas,-53.15,-70.9167,53.6,62,90,29.93,CL,1612151626
319,wajid,3.8093,43.2471,67.51,75,0,18.1,SO,1612151782
320,kendari,-3.945,122.4989,88.2,61,100,3.04,ID,1612151782
321,sahuaripa,29.05,-109.2333,62.15,36,37,1.45,MX,1612151782
322,punta%20arenas,-53.15,-70.9167,53.6,62,90,29.93,CL,1612151626
323,tiksi,71.6872,128.8694,-27.27,86,100,6.6,RU,1612151782
324,katsuura,35.1333,140.3,46.4,49,40,4.61,JP,1612151783
325,itoman,26.1247,127.6694,71.6,56,75,13.8,JP,1612151562
326,souillac,-20.5167,57.5167,82.4,74,40,11.5,MU,1612151783
327,morondava,-20.2833,44.2833,79.97,79,26,7.25,MG,1612151783
328,oksfjord,70.2396,22.3479,26.6,93,100,2.3,NO,1612151784
329,hualmay,-11.0964,-77.6139,69.98,82,99,9.42,PE,1612151784
330,kaeo,-35.1,173.7833,69.93,57,9,6.2,NZ,1612151784
331,punta%20arenas,-53.15,-70.9167,53.6,62,90,29.93,CL,1612151626
332,batie,9.8833,-2.9167,69.96,22,55,4.61,BF,1612151784
333,beloha,-25.1667,45.05,81.48,65,0,5.48,MG,1612151784
334,port%20elizabeth,-33.918,25.5701,66.2,77,40,16.11,ZA,1612151663
335,terney,45.0503,136.6092,23.7,95,100,3.96,RU,1612151784
336,sisimiut,66.9395,-53.6735,8.04,80,78,7.94,GL,1612151785
337,ulaanbaatar,47.9077,106.8832,-14.8,58,0,2.24,MN,1612151610
338,tallahassee,30.4383,-84.2807,66.2,82,75,12.66,US,1612151551
339,new%20norfolk,-42.7826,147.0587,72.0,56,75,12.66,AU,1612151730
340,bilma,18.6853,12.9164,57.15,30,5,4.65,NE,1612151785
341,valley%20city,46.9233,-98.0032,19.4,100,90,6.91,US,1612151705
342,doka,13.5167,35.7667,67.86,64,0,11.86,SD,1612151786
343,lixourion,38.2019,20.4314,56.44,75,86,15.88,GR,1612151786
344,puerto%20el%20triunfo,13.2833,-88.55,77.0,78,0,5.75,SV,1612151786
345,pundaguitan,6.3711,126.1689,81.81,76,98,11.03,PH,1612151786
346,moundou,8.5667,16.0833,69.89,23,0,4.92,TD,1612151786
347,belyy%20yar,53.6039,91.3903,-16.6,69,23,0.43,RU,1612151786
348,shubarkuduk,49.1447,56.4872,15.24,93,43,5.17,KZ,1612151787
349,pacific%20grove,36.6177,-121.9166,54.0,82,1,6.13,US,1612151571
350,banda%20aceh,5.5577,95.3222,84.04,67,49,9.73,ID,1612151787
351,leh,34.1667,77.5833,11.41,74,98,1.86,IN,1612151787
352,cabo%20san%20lucas,22.8909,-109.9124,66.0,88,20,1.43,MX,1612151763
353,port%20alfred,-33.5906,26.891,66.99,85,89,5.01,ZA,1612151746
354,loa%20janan,-0.583,117.095,89.02,55,100,3.98,ID,1612151788
355,boende,-0.2167,20.8667,70.86,92,68,2.35,CD,1612151788
356,noumea,-22.2763,166.4572,84.2,58,0,23.02,NC,1612151726
357,bintulu,3.1667,113.0333,84.2,84,40,3.44,MY,1612151788
358,punta%20arenas,-53.15,-70.9167,53.6,62,90,29.93,CL,1612151626
359,ondangwa,-17.9167,15.95,75.2,78,100,1.14,NA,1612151788
360,mena,51.5217,32.2157,11.39,96,15,3.0,UA,1612151788
361,yaan,7.3833,8.5667,73.74,89,13,6.78,NG,1612151788
362,avera,33.194,-82.5271,46.4,94,90,3.44,US,1612151789
363,tezpur,26.6333,92.8,68.68,49,0,2.39,IN,1612151789
364,plettenberg%20bay,-34.0527,23.3716,63.36,77,99,10.07,ZA,1612151789
365,robertson,36.5167,-86.8667,35.6,87,90,17.27,US,1612151789
366,anito,12.4497,125.2886,79.09,87,82,12.06,PH,1612151789
367,kangaatsiaq,68.3065,-53.4641,3.43,92,100,10.96,GL,1612151789
368,piranhas,-16.4269,-51.8222,73.65,78,99,2.68,BR,1612151790
369,nizwa,22.9333,57.5333,68.63,32,0,1.1,OM,1612151536
370,bestobe,52.4994,73.0975,6.96,94,100,6.49,KZ,1612151790
371,gazanjyk,39.2446,55.5154,43.39,73,61,1.79,TM,1612151790
372,kruisfontein,-34.0033,24.7314,62.01,94,97,1.01,ZA,1612151790
373,puerto%20ayora,-0.7393,-90.3518,78.01,91,36,3.0,EC,1612151735
374,punta%20arenas,-53.15,-70.9167,53.6,62,90,29.93,CL,1612151626
375,kapuskasing,49.4169,-82.4331,-9.4,84,100,3.04,CA,1612151620
376,kargasok,59.0556,80.8572,-12.73,86,88,5.55,RU,1612151791
377,cabo%20san%20lucas,22.8909,-109.9124,66.0,88,20,1.43,MX,1612151763
378,port%20elizabeth,-33.918,25.5701,66.2,77,40,16.11,ZA,1612151663
379,west%20bay,19.3667,-81.4167,79.0,73,20,5.75,KY,1612151792
380,port%20alfred,-33.5906,26.891,66.99,85,89,5.01,ZA,1612151746
381,mount%20gambier,-37.8333,140.7667,66.2,59,90,18.41,AU,1612151775
382,roebourne,-20.7833,117.1333,78.64,81,100,15.93,AU,1612151792
383,waipawa,-41.4122,175.5153,71.01,77,0,12.66,NZ,1612151793
384,sitka,57.0531,-135.33,35.6,64,1,3.44,US,1612151550
385,punta%20arenas,-53.15,-70.9167,53.6,62,90,29.93,CL,1612151626
386,vozrozhdeniye,44.5503,38.2136,43.0,74,100,12.03,RU,1612151793
387,east%20london,-33.0153,27.9116,66.2,94,75,19.57,ZA,1612151775
388,ishigaki,24.3448,124.1572,75.2,57,40,12.66,JP,1612151544
389,punta%20arenas,-53.15,-70.9167,53.6,62,90,29.93,CL,1612151626
390,cape%20town,-33.9258,18.4232,64.0,72,0,21.85,ZA,1612151454
391,mandalgovi,45.7625,106.2708,-4.02,77,0,13.85,MN,1612151794
392,cayenne,4.9333,-52.3333,80.6,78,75,10.36,GF,1612151794
393,cabo%20san%20lucas,22.8909,-109.9124,66.0,88,20,1.43,MX,1612151763
394,hobyo,5.3505,48.5268,75.74,71,32,21.7,SO,1612151795
395,punta%20arenas,-53.15,-70.9167,53.6,62,90,29.93,CL,1612151626
396,majene,-3.5403,118.9707,83.95,65,100,3.6,ID,1612151795
397,college,64.8569,-147.8028,-5.8,77,90,2.86,US,1612151542
398,karratha,-20.7377,116.8463,78.46,81,100,16.84,AU,1612151796
399,olafsvik,64.8945,-23.7142,33.51,89,100,14.9,IS,1612151796
400,payson,40.0444,-111.7321,35.01,60,75,5.73,US,1612151526
401,luganville,-15.5333,167.1667,77.86,82,100,7.65,VU,1612151796
402,yeppoon,-23.1333,150.7333,86.0,45,75,10.36,AU,1612151796
403,cherskiy,68.75,161.3,-8.68,84,100,6.24,RU,1612151552
404,dabakala,8.3667,-4.4333,71.31,57,0,1.97,CI,1612151797
405,puerto%20ayora,-0.7393,-90.3518,78.01,91,36,3.0,EC,1612151735
406,abu%20zabad,12.35,29.25,63.41,27,0,9.75,SD,1612151556
407,punta%20arenas,-53.15,-70.9167,53.6,62,90,29.93,CL,1612151626
408,kuching,1.55,110.3333,80.6,83,40,5.75,MY,1612151797
409,sungairaya,0.7,108.9,81.23,83,100,14.16,ID,1612151559
410,phillipsburg,40.6937,-75.1902,21.99,91,100,4.0,US,1612151798
411,cabuyaro,4.2817,-72.794,82.42,55,86,6.2,CO,1612151798
412,bartica,6.4,-58.6167,73.4,94,20,4.61,GY,1612151798
413,vila,42.0304,-8.1588,51.01,91,100,15.99,PT,1612151798
414,cape%20town,-33.9258,18.4232,64.0,72,0,21.85,ZA,1612151454
415,cape%20town,-33.9258,18.4232,64.0,72,0,21.85,ZA,1612151454
416,nyurba,63.2842,118.3319,-37.48,81,93,4.83,RU,1612151799
417,dabhol,17.6,73.1667,80.85,37,2,5.1,IN,1612151799
418,lakselv,70.0513,24.9718,21.2,93,90,4.61,NO,1612151799
419,tucuman,-26.8241,-65.2226,66.2,100,90,5.75,AR,1612151799
420,punta%20arenas,-53.15,-70.9167,53.6,62,90,29.93,CL,1612151626
421,punta%20arenas,-53.15,-70.9167,53.6,62,90,29.93,CL,1612151626
422,vila%20velha,-20.3297,-40.2925,78.01,83,40,6.91,BR,1612151608
423,new%20norfolk,-42.7826,147.0587,72.0,56,75,12.66,AU,1612151730
424,yichun,47.7,128.9,-5.84,89,100,7.27,CN,1612151800
425,mar%20del%20plata,-38.0023,-57.5575,64.0,72,75,11.5,AR,1612151713
426,porto%20novo,6.4965,2.6036,82.4,89,40,2.3,BJ,1612151800
427,beyneu,45.3167,55.2,34.75,89,0,7.0,KZ,1612151800
428,palana,59.1167,159.9667,-3.44,95,100,30.94,RU,1612151800
429,banff,51.1762,-115.5698,35.6,93,98,4.61,CA,1612151801
430,gat,31.61,34.7642,48.99,100,0,4.0,IL,1612151801
431,sao%20filipe,14.8961,-24.4956,71.51,75,0,6.93,CV,1612151801
432,natal,-5.795,-35.2094,80.6,83,40,5.75,BR,1612151801
433,puerto%20ayora,-0.7393,-90.3518,78.01,91,36,3.0,EC,1612151735
434,pauini,-7.7136,-66.9764,73.17,97,91,0.47,BR,1612151801
435,manakara,-22.1333,48.0167,79.75,82,0,2.77,MG,1612151505
436,barra,-11.0894,-43.1417,77.11,67,7,9.22,BR,1612151801
437,lodja,-3.4833,23.4333,68.25,91,100,2.19,CD,1612151802
438,new%20norfolk,-42.7826,147.0587,72.0,56,75,12.66,AU,1612151730
439,kimbe,-5.5502,150.1429,85.82,67,70,7.16,PG,1612151802
440,punta%20arenas,-53.15,-70.9167,53.6,62,90,29.93,CL,1612151626
441,kuala%20lipis,4.1842,102.0468,86.94,60,86,1.79,MY,1612151802
442,novo%20aripuana,-5.1206,-60.3797,74.34,94,17,0.11,BR,1612151576
443,punta%20arenas,-53.15,-70.9167,53.6,62,90,29.93,CL,1612151626
444,port%20hedland,-20.3167,118.5667,78.8,100,90,23.02,AU,1612151749
445,cape%20town,-33.9258,18.4232,64.0,72,0,21.85,ZA,1612151454
446,san%20rafael%20del%20sur,11.8485,-86.4384,80.6,69,40,4.61,NI,1612151774
447,vanimo,-2.6741,141.3028,78.24,88,100,8.21,PG,1612151572
448,muisne,0.6,-80.0333,77.68,87,91,1.05,EC,1612151803
449,luangwa,-15.6167,30.4167,72.28,94,100,2.08,ZM,1612151803
450,kitangari,-10.65,39.3333,69.35,96,100,3.87,TZ,1612151803
451,butig,7.7244,124.3008,75.99,77,100,3.18,PH,1612151803
452,vilhena,-12.7406,-60.1458,70.41,94,73,0.81,BR,1612151803
453,umarkhed,19.6,77.7,66.2,59,0,1.14,IN,1612151804
454,giddalur,15.35,78.9167,77.11,62,9,8.23,IN,1612151804
455,new%20norfolk,-42.7826,147.0587,72.0,56,75,12.66,AU,1612151730
456,sao%20joao%20da%20barra,-21.6403,-41.0511,76.95,82,82,19.66,BR,1612151771
457,shingu,33.7333,135.9833,57.2,58,75,14.97,JP,1612151805
458,derbent,42.0678,48.2899,41.97,81,21,2.91,RU,1612151805
459,soyo,-6.1349,12.3689,79.12,85,96,6.44,AO,1612151657
460,sioux%20lookout,50.1001,-91.917,24.8,93,90,4.61,CA,1612151805
461,east%20london,-33.0153,27.9116,66.2,94,75,19.57,ZA,1612151775
462,clyde%20river,70.4692,-68.5914,-4.0,84,90,23.02,CA,1612151805
463,itarema,-2.9248,-39.9167,80.02,82,95,12.62,BR,1612151805
464,san%20patricio,28.017,-97.5169,59.0,44,1,9.22,US,1612151778
465,taoudenni,22.6783,-3.9836,65.3,25,8,8.3,ML,1612151806
466,naco,31.3347,-109.9483,48.0,53,99,1.99,MX,1612151806
467,port%20hardy,50.6996,-127.4199,42.8,100,90,4.61,CA,1612151806
468,myaundzha,63.0494,147.1858,-20.25,84,100,6.11,RU,1612151806
469,yar-sale,66.8333,70.8333,-11.13,90,100,8.72,RU,1612151564
470,punta%20arenas,-53.15,-70.9167,53.6,62,90,29.93,CL,1612151626
471,hurghada,27.2574,33.8129,57.2,44,0,6.91,EG,1612151683
472,san%20cristobal,7.7669,-72.225,66.52,72,98,2.53,VE,1612151773
473,havoysund,70.9963,24.6622,26.6,93,75,10.36,NO,1612151807
474,bakchar,57.0186,82.0711,-9.33,86,87,2.59,RU,1612151807
475,orlik,52.5178,99.825,-13.68,72,0,2.35,RU,1612151807
476,izumo,35.3667,132.7667,55.4,58,75,31.07,JP,1612151807
477,rongcheng,30.634,117.8517,49.06,92,100,3.85,CN,1612151808
478,christchurch,-43.5333,172.6333,70.0,64,100,12.66,NZ,1612151722
479,mingyue,43.1069,128.9217,26.28,87,93,15.68,CN,1612151785
480,port%20blair,11.6667,92.75,82.89,70,24,16.93,IN,1612151808
481,grafton,42.207,-71.6856,19.99,62,90,4.61,US,1612151808
482,cape%20town,-33.9258,18.4232,64.0,72,0,21.85,ZA,1612151454
483,rio%20grande,-32.035,-52.0986,73.99,93,93,1.01,BR,1612151808
484,upington,-28.4478,21.2561,64.4,63,0,5.75,ZA,1612151809
485,kenai,60.5544,-151.2583,5.0,85,1,6.93,US,1612151809
486,east%20london,-33.0153,27.9116,66.2,94,75,19.57,ZA,1612151775
487,anadyr,64.75,177.4833,10.4,85,90,55.92,RU,1612151558
488,singaparna,-7.3515,108.111,88.41,50,99,1.74,ID,1612151809
489,ponta%20do%20sol,32.6667,-17.1,55.99,52,0,1.99,PT,1612151775
490,port%20elizabeth,-33.918,25.5701,66.2,77,40,16.11,ZA,1612151663
491,nkhotakota,-12.9274,34.2961,73.94,89,100,9.13,MW,1612151810
492,chumikan,54.7183,135.315,-18.29,78,30,17.87,RU,1612151587
493,mar%20del%20plata,-38.0023,-57.5575,64.0,72,75,11.5,AR,1612151713
494,beringovskiy,63.05,179.3167,16.34,96,100,33.91,RU,1612151810
495,lompoc,34.6391,-120.4579,55.4,67,1,1.9,US,1612151810
496,komsomolskiy,40.4272,71.7189,39.2,52,40,2.19,UZ,1612151811
497,kismayo,-0.3582,42.5454,75.49,82,86,11.18,SO,1612151572
498,bowen,-20.0167,148.2333,86.0,62,40,19.57,AU,1612151811
499,coruripe,-10.1256,-36.1756,77.05,83,86,9.22,BR,1612151811
500,port%20alfred,-33.5906,26.891,66.99,85,89,5.01,ZA,1612151746
501,weston,26.1004,-80.3998,71.6,78,1,8.05,US,1612151747
502,mandan,46.8267,-100.8896,21.2,100,90,4.61,US,1612151811
503,silver%20city,32.7701,-108.2803,46.4,29,1,8.05,US,1612151705
504,new%20norfolk,-42.7826,147.0587,72.0,56,75,12.66,AU,1612151730
505,ihosy,-22.4,46.1167,71.37,87,89,5.26,MG,1612151812
506,port%20elizabeth,-33.918,25.5701,66.2,77,40,16.11,ZA,1612151663
507,faanui,-16.4833,-151.75,80.89,75,78,10.6,PF,1612151812
508,clyde%20river,70.4692,-68.5914,-4.0,84,90,23.02,CA,1612151805
509,puerto%20ayora,-0.7393,-90.3518,78.01,91,36,3.0,EC,1612151735
510,sosnovo-ozerskoye,52.5249,111.5418,-26.14,84,78,10.18,RU,1612151812
511,port%20hardy,50.6996,-127.4199,42.8,100,90,4.61,CA,1612151806
512,port%20hedland,-20.3167,118.5667,78.8,100,90,23.02,AU,1612151749
513,puerto%20ayora,-0.7393,-90.3518,78.01,91,36,3.0,EC,1612151735
514,mangrol,21.1167,70.1167,72.32,25,0,8.99,IN,1612151813
515,pindiga,9.9833,10.9333,67.42,26,0,6.02,NG,1612151813
516,paso%20de%20los%20toros,-32.8167,-56.5167,69.48,81,99,16.82,UY,1612151813
517,finale%20ligure,44.1695,8.3436,48.2,100,75,11.5,IT,1612151813
518,nechi,8.0942,-74.7757,76.01,82,95,1.34,CO,1612151813
519,nianzishan,47.5167,122.8833,-3.6,83,69,9.35,CN,1612151814
520,punta%20arenas,-53.15,-70.9167,53.6,62,90,29.93,CL,1612151626
521,baraboo,43.4711,-89.7443,28.4,93,90,6.98,US,1612151814
522,honiara,-9.4333,159.95,82.27,79,81,15.77,SB,1612151814
523,namatanai,-3.6667,152.4333,83.52,77,75,7.85,PG,1612151535
524,cabo%20san%20lucas,22.8909,-109.9124,66.0,88,20,1.43,MX,1612151763
525,talara,-4.5772,-81.2719,74.5,82,96,15.84,PE,1612151815
526,norman%20wells,65.282,-126.8329,-23.8,76,75,5.75,CA,1612151731
527,tiznit,29.5833,-9.5,59.41,53,0,0.51,MA,1612151815
528,bambous%20virieux,-20.3428,57.7575,82.4,74,40,11.5,MU,1612151755
529,togur,58.3631,82.8265,-14.69,87,80,4.41,RU,1612151815
530,port%20alfred,-33.5906,26.891,66.99,85,89,5.01,ZA,1612151746
531,muros,42.7762,-9.0603,57.99,84,81,5.99,ES,1612151815
532,ballina,-28.8667,153.5667,82.4,57,40,12.66,AU,1612151816
533,muroto,33.2833,134.15,51.8,66,75,9.22,JP,1612151816
534,rawson,-43.3002,-65.1023,69.33,48,15,21.94,AR,1612151816
535,maxixe,-23.8597,35.3472,78.49,88,4,7.87,MZ,1612151816
536,maturin,9.75,-63.1767,69.62,97,15,4.52,VE,1612151664
537,guanay,-15.4975,-67.8797,74.19,83,100,1.52,BO,1612151817
538,esperance,-33.8667,121.9,78.8,38,40,12.66,AU,1612151817
539,tilichiki,60.4667,166.1,0.52,94,100,13.4,RU,1612151817
540,yulara,-25.2406,130.9889,95.0,20,40,19.57,AU,1612151817
541,punta%20arenas,-53.15,-70.9167,53.6,62,90,29.93,CL,1612151626
542,taksimo,56.3444,114.8794,-20.06,76,98,2.01,RU,1612151817
543,bambanglipuro,-7.95,110.2833,86.45,63,98,5.23,ID,1612151817
544,arraial%20do%20cabo,-22.9661,-42.0278,76.37,86,100,25.37,BR,1612151462
545,san%20quintin,30.4833,-115.95,59.27,66,98,7.94,MX,1612151553
546,punta%20arenas,-53.15,-70.9167,53.6,62,90,29.93,CL,1612151626
547,victor%20harbor,-35.5667,138.6167,68.0,68,34,5.01,AU,1612151818
548,comodoro%20rivadavia,-45.8667,-67.5,62.6,59,0,5.75,AR,1612151777
549,qena,26.1615,32.7183,50.0,46,0,2.3,EG,1612151818
550,henties%20bay,-22.116,14.2845,66.99,85,100,5.41,NA,1612151818
551,saint-philippe,-21.3585,55.7679,84.2,51,0,8.05,RE,1612151818
552,vestmannaeyjar,63.4427,-20.2734,33.69,86,57,17.49,IS,1612151819
553,conceicao%20do%20araguaia,-8.2578,-49.2647,74.57,86,0,1.52,BR,1612151819
554,tigil,57.8,158.6667,-1.07,92,100,15.95,RU,1612151819
555,nerchinsk,51.9833,116.5833,-18.71,83,99,1.21,RU,1612151819
556,karatu,-3.3333,35.6667,57.63,69,69,3.42,TZ,1612151656
557,puerto%20ayora,-0.7393,-90.3518,78.01,91,36,3.0,EC,1612151735
558,flinders,-34.5833,150.8552,84.0,66,56,4.0,AU,1612151819
559,balakhninskiy,58.0106,114.2769,-27.29,77,100,2.48,RU,1612151820
560,bairiki,1.3292,172.9752,86.0,70,20,11.5,KI,1612151820
561,east%20london,-33.0153,27.9116,66.2,94,75,19.57,ZA,1612151775
562,punta%20arenas,-53.15,-70.9167,53.6,62,90,29.93,CL,1612151626
563,ajdabiya,30.7554,20.2263,59.49,58,53,9.44,LY,1612151820
564,lasa,46.6166,10.7002,37.0,100,90,4.61,IT,1612151586
565,villazon,-22.0866,-65.5942,54.27,71,9,13.51,BO,1612151820
566,esmeraldas,-19.7625,-44.3139,75.2,60,0,5.75,BR,1612151821
567,waitati,-45.75,170.5667,66.99,57,88,15.99,NZ,1612151821
568,takoradi,4.8845,-1.7554,78.4,88,31,7.74,GH,1612151821
569,puerto%20ayora,-0.7393,-90.3518,78.01,91,36,3.0,EC,1612151735
570,pangai,-19.8,-174.35,82.4,83,90,9.22,TO,1612151821
571,chilmari,25.5559,89.6715,67.87,34,0,4.16,BD,1612151822
572,ahar,38.4774,47.0699,29.32,93,7,6.24,IR,1612151822
573,port%20alfred,-33.5906,26.891,66.99,85,89,5.01,ZA,1612151746
574,hun,29.1268,15.9477,54.03,61,60,6.89,LY,1612151595
575,lircay,-12.9896,-74.7205,49.78,76,88,3.69,PE,1612151822
576,wasilla,61.5814,-149.4394,3.99,85,20,1.83,US,1612151620
577,saint%20george,37.1041,-113.5841,50.0,46,1,4.61,US,1612151542
578,aripuana,-9.1667,-60.6333,73.94,94,85,1.7,BR,1612151823
579,ribeira%20grande,38.5167,-28.7,63.34,84,99,33.13,PT,1612151732
580,svetlyy,54.675,20.1347,28.99,93,75,11.18,RU,1612151823
581,ostrovnoy,68.0531,39.5131,11.55,94,87,3.69,RU,1612151823
582,arraial%20do%20cabo,-22.9661,-42.0278,76.37,86,100,25.37,BR,1612151462
583,arraial%20do%20cabo,-22.9661,-42.0278,76.37,86,100,25.37,BR,1612151462
584,waingapu,-9.6567,120.2641,84.88,72,21,16.13,ID,1612151823
585,flin%20flon,54.7682,-101.865,0.93,94,19,2.51,CA,1612151823
586,cape%20town,-33.9258,18.4232,64.0,72,0,21.85,ZA,1612151454
587,todos%20santos,23.45,-110.2167,66.0,86,100,7.52,MX,1612151824
588,limoges,45.75,1.3333,48.2,93,90,9.57,FR,1612151824
589,ayan,56.45,138.1667,-20.74,72,98,12.5,RU,1612151824
590,san%20patricio,28.017,-97.5169,59.0,44,1,9.22,US,1612151778
591,iskateley,67.6803,53.1512,13.14,96,100,12.68,RU,1612151824
592,betanzos,43.2804,-8.2147,57.99,77,75,12.66,ES,1612151824
593,chino%20valley,34.7575,-112.4538,37.4,70,1,4.36,US,1612151825
594,clyde%20river,70.4692,-68.5914,-4.0,84,90,23.02,CA,1612151805
595,manavalakurichi,8.1333,77.3,86.0,66,75,4.61,IN,1612151825
596,gasa,31.5,34.4667,48.99,100,0,3.0,PS,1612151537
597,coria,39.9879,-6.5377,51.01,88,20,7.0,ES,1612151825
598,itaituba,-4.2761,-55.9836,75.2,100,40,1.41,BR,1612151825
599,mar%20del%20plata,-38.0023,-57.5575,64.0,72,75,11.5,AR,1612151713
600,akyab,20.15,92.9,72.46,25,0,7.38,MM,1612151826
601,sao%20jose%20da%20coroa%20grande,-8.8978,-35.1478,77.49,81,100,7.38,BR,1612151826
602,abalak,58.1286,68.5944,3.09,95,33,5.82,RU,1612151826
603,saint%20george,37.1041,-113.5841,50.0,46,1,4.61,US,1612151542
604,nemuro,43.3236,145.575,24.8,58,20,8.05,JP,1612151826
605,belaya%20gora,68.5333,146.4167,-27.35,85,100,2.48,RU,1612151826
606,pak%20phanang,8.3511,100.202,86.0,74,75,4.61,TH,1612151826
607,mackenzie,55.2999,-123.1698,17.6,93,90,2.33,CA,1612151827
608,punta%20arenas,-53.15,-70.9167,53.6,62,90,29.93,CL,1612151626
609,puerto%20ayora,-0.7393,-90.3518,78.01,91,36,3.0,EC,1612151735
610,bridlington,54.0831,-0.1919,37.99,83,71,5.01,GB,1612151540
611,watsa,3.0372,29.5355,65.16,49,88,2.98,CD,1612151828
612,yuli,9.6989,10.2744,70.09,23,16,6.22,NG,1612151828
613,ilo,-17.6394,-71.3375,68.09,80,69,5.17,PE,1612151828
614,puerto%20ayora,-0.7393,-90.3518,78.01,91,36,3.0,EC,1612151735
615,iquitos,-3.7481,-73.2472,73.4,94,90,1.14,PE,1612151595
616,cape%20town,-33.9258,18.4232,64.0,72,0,21.85,ZA,1612151454
617,miri,4.4148,114.0089,86.0,79,40,6.91,MY,1612151829
618,kraksaan,-7.7585,113.3962,84.61,70,100,6.13,ID,1612151829
619,merauke,-8.4667,140.3333,81.79,83,89,12.46,ID,1612151829
620,catuday,16.2923,119.8062,77.94,61,3,5.53,PH,1612151829
621,baruun-urt,46.6806,113.2792,-14.57,81,0,10.02,MN,1612151829
622,cabo%20san%20lucas,22.8909,-109.9124,66.0,88,20,1.43,MX,1612151763
623,iguape,-24.7081,-47.5553,78.76,76,100,4.5,BR,1612151830
624,port%20alfred,-33.5906,26.891,66.99,85,89,5.01,ZA,1612151746
625,cape%20town,-33.9258,18.4232,64.0,72,0,21.85,ZA,1612151454
626,port%20alfred,-33.5906,26.891,66.99,85,89,5.01,ZA,1612151746
627,berdigestyakh,62.0989,126.6992,-39.21,79,100,6.06,RU,1612151580
628,gornopravdinsk,60.05,69.9,4.39,94,97,5.46,RU,1612151830
629,qui%20nhon,13.7667,109.2333,75.24,72,97,12.37,VN,1612151831
630,umm%20lajj,25.0213,37.2685,70.2,33,0,2.62,SA,1612151831
631,punta%20arenas,-53.15,-70.9167,53.6,62,90,29.93,CL,1612151626
632,ust-maya,60.4167,134.5333,-36.17,78,100,4.59,RU,1612151831
633,san%20andres,12.5847,-81.7006,80.6,78,40,13.8,CO,1612151831
634,mar%20del%20plata,-38.0023,-57.5575,64.0,72,75,11.5,AR,1612151713
635,les%20cayes,18.2,-73.75,73.42,78,52,4.38,HT,1612151831
636,lata,40.1629,-8.3327,57.0,93,89,4.32,PT,1612151831
637,el%20alto,-4.2714,-81.2147,72.73,82,87,17.38,PE,1612151832
638,punta%20arenas,-53.15,-70.9167,53.6,62,90,29.93,CL,1612151626
639,bara,10.3744,10.7288,65.73,27,2,4.9,NG,1612151832
640,simav,39.0882,28.9777,38.3,80,97,8.93,TR,1612151832
641,sabang,5.8933,95.3214,81.36,80,55,19.13,ID,1612151832
642,mar%20del%20plata,-38.0023,-57.5575,64.0,72,75,11.5,AR,1612151713
643,salalah,17.0151,54.0924,68.0,64,20,3.44,OM,1612151832
644,pacific%20grove,36.6177,-121.9166,54.0,82,1,6.13,US,1612151571
645,port%20alfred,-33.5906,26.891,66.99,85,89,5.01,ZA,1612151746
646,san%20patricio,28.017,-97.5169,59.0,44,1,9.22,US,1612151778
647,maningrida,-12.0667,134.2667,88.21,68,99,11.54,AU,1612151577
648,linxia,35.6003,103.2064,31.3,71,0,3.42,CN,1612151833
649,cape%20town,-33.9258,18.4232,64.0,72,0,21.85,ZA,1612151454
650,narsaq,60.9167,-46.05,41.0,30,75,14.97,GL,1612151833
651,new%20norfolk,-42.7826,147.0587,72.0,56,75,12.66,AU,1612151730
652,mweka,-4.85,21.5667,67.82,98,91,0.49,CD,1612151537
653,noyabrsk,63.1994,75.4507,-0.69,93,99,9.28,RU,1612151834
654,northam,51.0333,-4.2167,41.0,94,100,1.01,GB,1612151834
655,finnsnes,69.2296,17.9811,6.8,85,40,1.95,NO,1612151834
656,riyadh,24.6877,46.7219,53.6,35,0,4.25,SA,1612151666
657,hornepayne,49.2138,-84.7705,4.39,94,100,4.03,CA,1612151834
658,pita,10.8333,-12.5833,68.2,24,17,4.36,GN,1612151834
659,port%20hardy,50.6996,-127.4199,42.8,100,90,4.61,CA,1612151806
660,sawakin,19.1059,37.3321,71.64,75,100,7.43,SD,1612151834
661,santa%20cruz%20de%20la%20palma,28.6835,-17.7642,62.6,82,0,11.5,ES,1612151652
662,valparaiso,-33.0393,-71.6273,59.52,84,5,9.98,CL,1612151835
663,ambo,-10.1308,-76.2047,60.62,67,100,0.4,PE,1612151835
664,axim,4.8699,-2.2405,78.39,88,10,6.76,GH,1612151835
665,punta%20arenas,-53.15,-70.9167,53.6,62,90,29.93,CL,1612151626
666,norman%20wells,65.282,-126.8329,-23.8,76,75,5.75,CA,1612151731
667,haines%20junction,60.7522,-137.5108,3.2,66,100,9.22,CA,1612151532
668,north%20bend,43.4065,-124.2243,51.01,95,100,1.99,US,1612151778
669,mar%20del%20plata,-38.0023,-57.5575,64.0,72,75,11.5,AR,1612151713
670,makakilo%20city,21.3469,-158.0858,80.6,47,1,8.05,US,1612151552
671,clyde%20river,70.4692,-68.5914,-4.0,84,90,23.02,CA,1612151805
672,bayonet%20point,28.3267,-82.6834,70.0,85,9,1.01,US,1612151836
673,qasigiannguit,68.8193,-51.1922,8.6,52,75,6.91,GL,1612151837
674,khandbari,27.3747,87.2039,61.12,38,20,2.53,NP,1612151837
675,port%20alfred,-33.5906,26.891,66.99,85,89,5.01,ZA,1612151746
676,mindelo,16.8901,-24.9804,69.8,83,40,23.02,CV,1612151837
677,guerrero%20negro,27.9769,-114.0611,64.04,56,100,2.39,MX,1612151541
678,ribeira%20grande,38.5167,-28.7,63.34,84,99,33.13,PT,1612151732
679,ponta%20delgada,37.7333,-25.6667,62.01,88,75,20.71,PT,1612151837
680,placido%20de%20castro,-10.3353,-67.1856,73.4,95,61,2.33,BR,1612151837
681,belyy%20yar,53.6039,91.3903,-16.6,69,23,0.43,RU,1612151786
682,tahe,52.3333,124.7333,-19.89,76,50,10.98,CN,1612151838
683,yenagoa,4.9247,6.2642,77.07,90,0,1.92,NG,1612151838
684,dutlwe,-23.9833,23.9,70.05,81,100,12.06,BW,1612151838
685,vila%20velha,-20.3297,-40.2925,78.01,83,40,6.91,BR,1612151608
686,isangel,-19.55,169.2667,87.8,66,75,5.75,VU,1612151539
687,requena,39.4883,-1.1004,63.0,63,9,28.32,ES,1612151838
688,ilukste,55.9775,26.2966,22.17,97,100,9.13,LV,1612151839
689,watertown,42.3709,-71.1828,23.0,73,1,2.46,US,1612151839
690,astana,51.1801,71.446,-0.4,85,100,4.47,KZ,1612151546
691,san%20patricio,28.017,-97.5169,59.0,44,1,9.22,US,1612151778
692,huarmey,-10.0681,-78.1522,70.07,82,87,7.67,PE,1612151839
693,mumbwa,-14.9783,27.0619,66.27,92,100,1.54,ZM,1612151839
694,silca,14.8333,-86.5333,71.6,100,75,2.04,HN,1612151839
695,waterloo,43.4668,-80.5164,17.6,62,90,13.8,CA,1612151840
696,kassala,15.451,36.4,63.97,91,0,9.17,SD,1612151840
697,bambous%20virieux,-20.3428,57.7575,82.4,74,40,11.5,MU,1612151755
698,mysliborz,52.9238,14.8679,19.99,80,89,1.01,PL,1612151747
699,cotacachi,0.3,-78.2667,53.6,87,20,3.44,EC,1612151840
700,sambava,-14.2667,50.1667,79.18,75,97,6.91,MG,1612151840
701,moerai,-22.4333,-151.3333,79.3,72,100,12.48,PF,1612151840
702,campagna,40.6653,15.1059,48.0,95,74,1.01,IT,1612151840
703,puerto%20ayora,-0.7393,-90.3518,78.01,91,36,3.0,EC,1612151735
704,bryant,34.5959,-92.4891,42.01,73,15,5.99,US,1612151841
